Group No,Group Name,Name,Sub Name,Repeater Call Sign,Gateway Call Sign,Frequency,Dup,Offset,Mode,TONE,Repeater Tone,RPT1USE,Position,Latitude,Longitude,UTC Offset
01,Hotspot,Hotspot,PiStar,xxxxxxxB,xxxxxxxG,433.111,OFF,0.000000,DV,OFF,88.5Hz,YES,Approximate,41.818333,12.715000,+1:00
02,DV Liguria,Borghetto Santo,IR1UGO,IR1UGO B,IR1UGO G,430.525000,DUP+,5.000000,DV,OFF,88.5Hz,YES,Exact,44.124833,8.254333,+1:00
02,DV Liguria,Borghetto Santo,IR1UGO,IR1UGO C,IR1UGO G,144.937500,DUP+,0.000000,DV,OFF,88.5Hz,YES,Exact,44.105833,8.231000,+1:00
02,DV Liguria,Cast. Chiavarese,IR1DC,IR1DC  C,IR1DC  G,144.925000,DUP-,0.000000,DV,OFF,88.5Hz,YES,Exact,44.275833,9.527167,+1:00
02,DV Liguria,Comeglio,IR1UBY,IR1UBY B,IR1UBY G,430.600000,DUP+,5.000000,DV,OFF,88.5Hz,YES,Exact,44.258000,9.502000,--:--
02,DV Liguria,Genova,IR1DB,IR1DB  B,IR1DB  G,430.912500,DUP+,0.000000,DV,OFF,88.5Hz,YES,Exact,44.407000,8.961000,--:--
02,DV Liguria,Lavagna Genova,IR1UAW,IR1UAW A,IR1UAW G,1243.000000,DUP+,0.000000,DV,OFF,88.5Hz,YES,Exact,44.306000,9.374167,+1:00
02,DV Liguria,Lavagna Genova,IR1UAW,IR1UAW B,IR1UAW G,430.912500,DUP+,5.000000,DV,OFF,88.5Hz,YES,Exact,44.306000,9.374167,+1:00
02,DV Liguria,Lavagna Genova,IR1UAW,IR1UAW C,IR1UAW G,144.862500,DUP-,0.000000,DV,OFF,88.5Hz,YES,Exact,44.306000,9.374167,+1:00
02,DV Liguria,Montefreddo,IR1UFV,IR1UFV B,IR1UFV G,431.450000,DUP+,1.600000,DV,OFF,88.5Hz,YES,Exact,44.307167,8.337833,--:--
02,DV Liguria,San Giorgio,IQ1LY,IQ1LY  B,IQ1LY  G,433.450000,DUP+,0.000000,DV,OFF,88.5Hz,YES,Exact,44.087167,8.217500,--:--
03,DV Piemonte,Alice Bel Colle,IR1UIV,IR1UIV B,IR1UIV G,430.875000,DUP+,5.000000,DV,OFF,88.5Hz,YES,Exact,44.725833,8.451167,--:--
03,DV Piemonte,Arona,IW1GB,IW1GB  B,IW1GB  G,430.000000,DUP+,0.000000,DV,OFF,88.5Hz,YES,Exact,45.760000,8.549667,--:--
03,DV Piemonte,Asigliano,IU1NPI,IU1NPI B,IU1NPI G,431.400000,DUP+,0.000000,DV,OFF,88.5Hz,YES,Exact,45.250000,8.440000,--:--
03,DV Piemonte,Cantoira TO,IU1NSW,IU1NSW B,IU1NSW G,430.800000,DUP+,5.000000,DV,OFF,88.5Hz,YES,Exact,45.335333,7.390000,--:--
03,DV Piemonte,Ceresole TO,IZ1DSJ,IZ1DSJ B,IZ1DSJ G,430.800000,DUP+,5.000000,DV,OFF,88.5Hz,YES,Exact,45.427167,7.246667,--:--
03,DV Piemonte,Corio TO,IR1A,IR1A   B,IR1A   G,430.575000,DUP+,5.000000,DV,OFF,88.5Hz,YES,Exact,45.330000,7.546667,--:--
03,DV Piemonte,Grugliasco TO,IW1DGK,IW1DGK B,IW1DGK G,433.937500,DUP+,0.000000,DV,OFF,88.5Hz,YES,Exact,45.071833,7.598167,--:--
03,DV Piemonte,Lingotto,IU1KWK,IU1KWK B,IU1KWK G,434.000000,DUP+,0.000000,DV,OFF,88.5Hz,YES,Exact,45.042833,7.643500,--:--
03,DV Piemonte,M. Garne' TO,IR1UW,IR1UW  B,IR1UW  G,430.200000,DUP+,5.000000,DV,OFF,88.5Hz,YES,Exact,45.309167,7.418167,+1:00
03,DV Piemonte,Ozzano,IR1UDI,IR1UDI B,IR1UDI G,430.025000,DUP+,1.600000,DV,OFF,88.5Hz,YES,Exact,45.122833,8.410167,--:--
03,DV Piemonte,Pallanzeno,IZ1ZPJ,IZ1ZPJ B,IZ1ZPJ G,430.987500,DUP+,5.000000,DV,OFF,88.5Hz,YES,Exact,46.056667,8.262333,--:--
03,DV Piemonte,Prarostino TO,IW1GLE,IW1GLE B,IW1GLE G,435.025000,DUP-,5.000000,DV,OFF,88.5Hz,YES,Exact,44.865500,7.269500,--:--
03,DV Piemonte,Verzuolo,IZ1RTF,IZ1RTF B,IZ1RTF G,431.550000,DUP+,0.000000,DV,OFF,88.5Hz,YES,Exact,44.604167,7.482167,--:--
04,DV Lombardia,Abbiategrasso,IZ2LPW,IZ2LPW C,IZ2LPW G,144.762500,DUP+,0.000000,DV,OFF,88.5Hz,YES,Exact,45.405667,8.922667,--:--
04,DV Lombardia,Bernate Ticino,IR2UEI,IR2UEI B,IR2UEI G,430.950000,DUP+,0.000000,DV,OFF,88.5Hz,YES,Exact,45.467333,8.831000,+1:00
04,DV Lombardia,Bollate Milano,IR2UFV,IR2UFV B,IR2UFV G,433.625000,DUP-,0.000000,DV,OFF,88.5Hz,YES,Exact,45.546167,9.111500,+1:00
04,DV Lombardia,Caidate,IK2YYL,IK2YYL H,IK2YYL G,433.987500,DUP+,0.000000,DV,OFF,88.5Hz,YES,Exact,45.752000,8.785500,--:--
04,DV Lombardia,Campo dei Fiori,IK2YYL,IK2YYL B,IK2YYL G,431.425000,DUP+,5.000000,DV,OFF,88.5Hz,YES,Exact,45.868167,8.773667,+1:00
04,DV Lombardia,Casina Biscia,IZ2VIT,IZ2VIT B,IZ2VIT G,433.050000,DUP+,0.000000,DV,OFF,88.5Hz,YES,Exact,45.584667,9.076500,--:--
04,DV Lombardia,Colico,IR2UGK,IR2UGK B,IR2UGK G,430.187500,DUP+,1.600000,DV,OFF,88.5Hz,YES,Exact,46.140667,9.258333,+1:00
04,DV Lombardia,Cornaredo,IK2UCJ,IK2UCJ B,IK2UCJ G,440.000000,DUP+,0.000000,DV,OFF,88.5Hz,YES,Exact,45.518167,9.007500,--:--
04,DV Lombardia,Gallarate,IR2UEZ,IR2UEZ A,IR2UEZ G,1297.275000,DUP-,6.000000,DV,OFF,88.5Hz,YES,Exact,45.681667,8.818000,--:--
04,DV Lombardia,Gallarate,IR2UEZ,IR2UEZ B,IR2UEZ G,431.612500,DUP+,1.600000,DV,OFF,88.5Hz,YES,Exact,45.681667,8.818000,--:--
04,DV Lombardia,Gorgonzola,IK2MLV,IK2MLV C,IK2MLV G,144.875000,DUP+,0.000000,DV,OFF,88.5Hz,YES,Exact,45.520000,9.373333,--:--
04,DV Lombardia,Gorgonzola,IZ2NBD,IZ2NBD B,IZ2NBD G,430.912500,DUP+,0.000000,DV,OFF,88.5Hz,YES,Exact,45.529000,9.339000,--:--
04,DV Lombardia,Lecco,IR2UDW,IR2UDW B,IR2UDW G,430.237500,DUP+,1.600000,DV,OFF,88.5Hz,YES,Exact,45.777167,9.458167,+1:00
04,DV Lombardia,Lodi,IZ2DDY,IZ2DDY B,IZ2DDY G,430.012500,DUP+,5.000000,DV,OFF,88.5Hz,YES,Exact,45.309833,9.505667,--:--
04,DV Lombardia,M. Boletto,IR2UG,IR2UG  B,IR2UG  G,430.025000,DUP+,1.600000,DV,OFF,88.5Hz,YES,Exact,45.826167,9.100500,+1:00
04,DV Lombardia,Melegnano,IW2GUI,IW2GUI B,IW2GUI G,435.275000,DUP+,0.000000,DV,OFF,88.5Hz,YES,Exact,45.355333,9.375667,--:--
04,DV Lombardia,Morbegno,IW2ESL,IW2ESL B,IW2ESL G,432.200000,DUP+,0.000000,DV,OFF,88.5Hz,YES,Exact,46.132167,9.581000,--:--
04,DV Lombardia,Paullo,IZ2IUT,IZ2IUT B,IZ2IUT G,432.825000,DUP+,0.000000,DV,OFF,88.5Hz,YES,Exact,45.415000,9.402167,--:--
04,DV Lombardia,Settimo,IZ2VTO,IZ2VTO B,IZ2VTO G,433.125000,DUP+,0.000000,DV,OFF,88.5Hz,YES,Exact,45.490000,9.020000,--:--
04,DV Lombardia,Sondrio,IR2UGU,IR2UGU B,IR2UGU G,430.200000,DUP+,1.600000,DV,OFF,88.5Hz,YES,Exact,46.185167,9.891167,--:--
04,DV Lombardia,Tremalzo,IK2ISX,IK2ISX B,IK2ISX G,430.575000,DUP+,5.000000,DV,OFF,88.5Hz,YES,Exact,45.837667,10.691500,--:--
04,DV Lombardia,Valcava,IR2UED,IR2UED B,IR2UED G,431.537500,DUP+,1.600000,DV,OFF,88.5Hz,YES,Exact,45.788833,9.513333,+1:00
05,DV Veneto,Arco,IW3HW,IW3HWH B,IW3HWH G,430.212500,DUP+,5.000000,DV,OFF,88.5Hz,YES,Exact,45.915000,10.873333,--:--
05,DV Veneto,Belluno,IR3UI,IR3UIQ B,IR3UIQ G,431.600000,DUP+,1.600000,DV,OFF,88.5Hz,YES,Exact,46.081833,12.301833,+1:00
05,DV Veneto,Brugine,IW3HO,IW3HOD B,IW3HOD G,430.575000,DUP+,0.000000,DV,OFF,88.5Hz,YES,Exact,45.300167,11.989333,--:--
05,DV Veneto,Castelmassa,IU3FE,IU3FEN B,IU3FEN G,438.200000,DUP+,0.000000,DV,OFF,88.5Hz,YES,Exact,45.020000,11.318167,--:--
05,DV Veneto,Lendinara,IZ3WW,IZ3WWG B,IZ3WWG G,433.125000,DUP+,0.000000,DV,OFF,88.5Hz,YES,Exact,45.083667,11.614333,--:--
05,DV Veneto,Lughetto,IK3CS,IK3CSU B,IK3CSU G,435.300000,DUP+,0.000000,DV,OFF,88.5Hz,YES,Exact,45.380000,12.160000,--:--
05,DV Veneto,Marghera,IW3HK,IW3HKL B,IW3HKL G,432.300000,DUP+,0.000000,DV,OFF,88.5Hz,YES,Exact,45.472000,12.219000,--:--
05,DV Veneto,Mauro Saline VE,IR3UG,IR3UG  A,IR3UG  G,1297.100000,DUP-,30.000000,DV,OFF,88.5Hz,YES,Exact,45.579167,11.116000,--:--
05,DV Veneto,Mauro Saline VE,IR3UG,IR3UG  B,IR3UG  G,430.450000,DUP+,5.000000,DV,OFF,88.5Hz,YES,Exact,45.579167,11.116000,--:--
05,DV Veneto,Mauro Saline VE,IR3UG,IR3UG  C,IR3UG  G,144.862500,DUP-,1.000000,DV,OFF,88.5Hz,YES,Exact,45.579167,11.116000,--:--
05,DV Veneto,Monselice Padova,IR3UE,IR3UEF A,IR3UEF G,1293.000000,DUP-,20.000000,DV,OFF,88.5Hz,YES,Exact,45.253833,11.743000,+1:00
05,DV Veneto,Monselice Padova,IR3UE,IR3UEF B,IR3UEF G,442.000000,DUP+,5.000000,DV,OFF,88.5Hz,YES,Exact,45.253833,11.743000,+1:00
05,DV Veneto,Monselice Padova,IR3UE,IR3UEF C,IR3UEF G,145.615000,DUP+,0.000000,DV,OFF,88.5Hz,YES,Exact,45.253833,11.743000,+1:00
05,DV Veneto,San Dona di Piav,IR3UI,IR3UIV B,IR3UIV G,431.300000,DUP+,1.600000,DV,OFF,88.5Hz,YES,Exact,45.651667,12.591833,--:--
05,DV Veneto,Santa Maria del,IZ3LC,IZ3LCI B,IZ3LCI G,431.487500,DUP+,0.000000,DV,OFF,88.5Hz,YES,Exact,45.348333,12.317667,--:--
05,DV Veneto,Sillian,IR3UA,IR3UAN B,IR3UAN G,430.587500,DUP+,5.000000,DV,OFF,88.5Hz,YES,Exact,46.715667,12.370000,--:--
06,DV Emilia Romagna,Bologna,IR4UCA,IR4UCA B,IR4UCA G,430.650000,DUP+,5.000000,DV,OFF,88.5Hz,YES,Exact,44.496667,11.291167,--:--
06,DV Emilia Romagna,Cervia,IR4UCF,IR4UCF B,IR4UCF G,430.300000,DUP+,5.000000,DV,OFF,88.5Hz,YES,Exact,44.252167,12.363833,+1:00
06,DV Emilia Romagna,Cimone,IR4MO,IR4MO  C,IR4MO  G,145.562500,DUP-,0.600000,DV,OFF,88.5Hz,YES,Exact,44.198167,10.705500,+1:00
06,DV Emilia Romagna,Forli,IR4UI,IR4UI  B,IR4UI  G,430.112500,DUP+,1.600000,DV,OFF,88.5Hz,YES,Exact,44.113833,12.004333,+1:00
06,DV Emilia Romagna,Ozzano,IU4OOP,IU4OOP B,IU4OOP G,432.775000,DUP+,0.000000,DV,OFF,88.5Hz,YES,Exact,44.445000,11.475833,--:--
06,DV Emilia Romagna,San Marino,T79DV,T79DV  B,T79DV  G,431.487500,DUP+,1.600000,DV,OFF,88.5Hz,YES,None,0.000000,0.000000,--:--
07,DV Toscana,Fiesole FI,IR5AY,IR5AY  C,IR5AY  G,145.575000,DUP-,0.600000,DV,OFF,88.5Hz,YES,Exact,43.804333,11.297017,+1:00
07,DV Toscana,Foenna *,IU5FFN,IU5FFN B,IU5FFN G,430.612500,DUP+,5.000000,DV,OFF,88.5Hz,YES,Exact,43.194500,11.791000,--:--
07,DV Toscana,M. Cascetto LU,IR5UBS,IR5UBS B,IR5UBS G,431.425000,DUP+,1.600000,DV,OFF,88.5Hz,YES,Exact,43.760500,10.550000,+1:00
07,DV Toscana,M. Giovi Firenze,IR5AN,IR5AN  B,IR5AN  G,430.800000,DUP+,5.000000,DV,OFF,88.5Hz,YES,Exact,43.875400,11.451433,+1:00
07,DV Toscana,M. Giovi Firenze,IR5AN,IR5AN  C,IR5AN  G,144.925000,DUP-,0.000000,DV,OFF,88.5Hz,YES,Exact,43.875400,11.451433,+1:00
07,DV Toscana,Migliana,IR5UDV,IR5UDV B,IR5UDV G,430.900000,DUP+,5.000000,DV,OFF,88.5Hz,YES,Exact,43.990833,11.101167,--:--
07,DV Toscana,Montecarlo LU,IR5UCL,IR5UCL B,IR5UCL G,431.562500,DUP+,1.600000,DV,OFF,88.5Hz,YES,Exact,43.860000,10.667500,+1:00
07,DV Toscana,P Castiglioni P,IR5UBO,IR5UBO B,IR5UBO G,430.275000,DUP+,1.600000,DV,OFF,88.5Hz,YES,Exact,43.873167,11.136517,+1:00
07,DV Toscana,Siena,IZ5OQO,IZ5OQO B,IZ5OQO G,433.650000,DUP-,0.000000,DV,OFF,88.5Hz,YES,Exact,43.314333,11.328167,+1:00
08,DV Puglia,Alliste,IR7UB,IR7UBL B,IR7UBL G,430.012500,DUP+,5.000000,DV,OFF,88.5Hz,YES,Exact,39.944667,18.090833,+1:00
08,DV Puglia,Alliste,IW7EH,IW7EHM B,IW7EHM G,432.800000,DUP+,0.000000,DV,OFF,88.5Hz,YES,Exact,39.941833,18.083667,+1:00
08,DV Puglia,Bari,I7WAN,I7WAN  B,I7WAN  G,431.500000,DUP+,0.000000,DV,OFF,88.5Hz,YES,Exact,41.103833,16.886333,+1:00
08,DV Puglia,Bari,IR7UB,IR7UBX B,IR7UBX G,430.000000,DUP+,5.000000,DV,OFF,88.5Hz,YES,Exact,41.088000,16.868000,+1:00
08,DV Puglia,Bari,IR7UB,IR7UBX C,IR7UBX G,145.575000,DUP-,0.600000,DV,OFF,88.5Hz,YES,Exact,41.088000,16.868000,+1:00
08,DV Puglia,Bari,IZ7JR,IZ7JRR B,IZ7JRR G,430.400000,DUP+,5.000000,DV,OFF,88.5Hz,YES,Exact,41.090000,16.827167,--:--
08,DV Puglia,Casamas,IU7LT,IU7LTM B,IU7LTM G,430.375000,DUP+,5.000000,DV,OFF,88.5Hz,YES,Exact,40.901167,16.839667,+1:00
08,DV Puglia,Casamassima,IR7UB,IR7UBA B,IR7UBA G,430.300000,DUP+,5.000000,DV,OFF,88.5Hz,YES,Exact,40.976500,16.919167,--:--
08,DV Puglia,Casamassima,IR7UB,IR7UBA C,IR7UBA G,145.612500,DUP-,0.600000,DV,OFF,88.5Hz,YES,Exact,40.976500,16.919167,--:--
08,DV Puglia,Lecce,IR7UB,IR7UBY B,IR7UBY G,430.425000,DUP+,5.000000,DV,OFF,88.5Hz,YES,Exact,40.331500,18.173667,+1:00
08,DV Puglia,Nardo,IZ7ZI,IZ7ZIT B,IZ7ZIT G,430.600000,DUP+,5.000000,DV,OFF,88.5Hz,YES,Exact,40.173000,18.034667,+1:00
08,DV Puglia,Neviano,IR7UB,IR7UBP B,IR7UBP G,430.500000,DUP+,5.000000,DV,OFF,88.5Hz,YES,Exact,40.107167,18.110833,+1:00
08,DV Puglia,Parabita,IR7UE,IR7UE  B,IR7UE  G,430.050000,DUP+,1.600000,DV,OFF,88.5Hz,YES,Exact,40.063000,18.144000,--:--
08,DV Puglia,Racale,IZ7NS,IZ7NSD B,IZ7NSD G,432.325000,DUP+,0.000000,DV,OFF,88.5Hz,YES,Exact,39.964833,18.124333,+1:00
08,DV Puglia,Spinazz,IZ7UN,IZ7UNM B,IZ7UNM G,431.100000,DUP+,0.000000,DV,OFF,88.5Hz,YES,Approximate,41.000000,16.000000,+1:00
08,DV Puglia,Taranto,IR7UC,IR7UC  B,IR7UC  G,430.100000,DUP+,5.000000,DV,OFF,88.5Hz,YES,Exact,40.583333,17.170667,+1:00
09,DV Trentino,Casanova,IN3AVB,IN3AVB B,IN3AVB G,431.475000,DUP+,0.000000,DV,OFF,88.5Hz,YES,Exact,46.481500,11.310000,--:--
09,DV Trentino,M. Kronplatz,IR3DV,IR3DV  B,IR3DV  G,431.525000,DUP+,1.600000,DV,OFF,88.5Hz,YES,Exact,46.740000,11.959833,+1:00
09,DV Trentino,Predonico,IR3UGM,IR3UGM B,IR3UGM G,431.525000,DUP+,1.600000,DV,OFF,88.5Hz,YES,Exact,46.493833,11.210333,--:--
09,DV Trentino,Preghena,IN3IZQ,IN3IZQ B,IN3IZQ G,433.500000,DUP+,0.000000,DV,OFF,88.5Hz,YES,Exact,46.409000,11.012500,--:--
09,DV Trentino,Trento,IW3BYL,IW3BYL B,IW3BYL G,430.500000,DUP+,5.000000,DV,OFF,88.5Hz,YES,Exact,46.085500,11.145500,--:--
09,DV Trentino,V. B. Stenico,IN3MYW,IN3MYW C,IN3MYW G,145.362500,DUP-,0.000000,DV,OFF,88.5Hz,YES,Exact,46.047000,10.886167,+1:00
09,DV Trentino,Val Pusteria,IN3DOV,IN3DOV B,IN3DOV G,434.000000,DUP+,0.000000,DV,OFF,88.5Hz,YES,Exact,46.806667,11.836333,--:--
09,DV Trentino,Val di Non,IN3IZQ,IN3IZQ C,IN3IZQ G,144.925000,DUP-,0.000000,DV,OFF,88.5Hz,YES,Exact,46.408667,11.012167,+1:00
10,DV Friuli,Fontanafredda,IR3UBK,IR3UBK B,IR3UBK G,430.550000,DUP+,5.000000,DV,OFF,88.5Hz,YES,Exact,46.137500,12.570000,+1:00
10,DV Friuli,Pordenone,IR3UIB,IR3UIB B,IR3UIB G,433.125000,DUP-,1.600000,DV,OFF,88.5Hz,YES,Exact,46.006833,12.435667,+1:00
10,DV Friuli,Trieste,IR3UEZ,IR3UEZ B,IR3UEZ G,431.450000,DUP+,1.600000,DV,OFF,88.5Hz,YES,Exact,45.692833,13.749500,+1:00
10,DV Friuli,Trieste,IR3UIC,IR3UIC B,IR3UIC G,433.150000,DUP-,1.600000,DV,OFF,88.5Hz,YES,Exact,45.650667,13.768000,+1:00
10,DV Friuli,Udine,IR3UBZ,IR3UBZ B,IR3UBZ G,433.025000,DUP-,1.600000,DV,OFF,88.5Hz,YES,Exact,46.057667,13.248000,+1:00
11,DV Umbria,Perugia,IZ0RT,IZ0RTB B,IZ0RTB G,430.050000,DUP+,4.900000,DV,OFF,88.5Hz,YES,Exact,43.102167,12.310167,--:--
11,DV Umbria,Terni,I0KMJ,I0KMJ  B,I0KMJ  G,433.650000,DUP+,0.000000,DV,OFF,88.5Hz,YES,Exact,42.554000,12.666500,+1:00
12,DV Lazio,Anzio,IR0M,IR0MA  B,IR0MA  G,430.006250,DUP+,5.000000,DV,OFF,88.5Hz,YES,Approximate,41.818333,12.715000,+1:00
12,DV Lazio,Calvi,IU0D,IU0DLI B,IU0DLI G,430.000000,DUP+,5.000000,DV,OFF,88.5Hz,YES,Exact,41.274167,13.508667,--:--
12,DV Lazio,Carpineto,IU0E,IU0EUJ B,IU0EUJ G,435.025000,DUP+,0.000000,DV,OFF,88.5Hz,YES,Exact,41.605500,13.086000,+1:00
12,DV Lazio,Carpineto,IU0E,IU0EUJ C,IU0EUJ G,145.512500,DUP-,0.000000,DV,OFF,88.5Hz,YES,Exact,41.605500,13.081000,+1:00
12,DV Lazio,Farnese,IR0U,IR0UHW B,IR0UHW G,433.700000,DUP-,0.000000,DV,OFF,88.5Hz,YES,Exact,42.012333,12.340333,+1:00
12,DV Lazio,Farnese,IZ0C,IZ0CGG B,IZ0CGG G,433.450000,DUP+,0.000000,DV,OFF,88.5Hz,YES,Exact,42.012333,12.340333,+1:00
12,DV Lazio,Gallinaro,IW0E,IW0EFI B,IW0EFI G,435.300000,DUP+,0.000000,DV,OFF,88.5Hz,YES,Exact,41.657833,13.798000,--:--
12,DV Lazio,Pomezia,IZ0R,IZ0RIN B,IZ0RIN G,430.312500,DUP+,5.000000,DV,OFF,88.5Hz,YES,Exact,41.680833,12.506500,+1:00
12,DV Lazio,Roma,IR0M,IR0MA  A,IR0MA  G,1297.450000,DUP-,28.000000,DV,OFF,88.5Hz,YES,Approximate,41.818333,12.715000,+1:00
12,DV Lazio,Roma,IR0U,IR0UIV B,IR0UIV G,430.850000,DUP+,5.000000,DV,OFF,88.5Hz,YES,Exact,41.856000,12.665000,+1:00
12,DV Lazio,Roma,IW0F,IW0FXN B,IW0FXN G,435.000000,DUP+,0.000000,DV,OFF,88.5Hz,YES,Exact,41.916333,12.436667,+1:00
12,DV Lazio,Roma,IZ0D,IZ0DFP B,IZ0DFP G,431.525000,DUP+,0.000000,DV,OFF,88.5Hz,YES,Exact,41.846500,12.484000,+1:00
12,DV Lazio,Roma,IZ0O,IZ0OWE B,IZ0OWE G,433.450000,DUP+,0.000000,DV,OFF,88.5Hz,YES,Exact,41.914333,12.527667,--:--
12,DV Lazio,Sezze,IZ0R,IZ0RIM B,IZ0RIM G,430.437500,DUP+,5.000000,DV,OFF,88.5Hz,YES,Exact,41.492000,13.079500,+1:00
13,DV Calabria,Cosenza,IR8AF,IR8AF  C,IR8AF  G,145.650000,DUP-,0.600000,DV,OFF,88.5Hz,YES,Exact,39.345333,16.314333,--:--
13,DV Calabria,Gioia Tauro,IU8LDG,IU8LDG B,IU8LDG G,433.450000,DUP+,0.000000,DV,OFF,88.5Hz,YES,Exact,38.436167,15.907500,+1:00
13,DV Calabria,Reggio Calabria,IR8UCN,IR8UCN C,IR8UCN G,145.712500,DUP-,0.600000,DV,OFF,88.5Hz,YES,Exact,38.221167,15.643333,+1:00
14,DV Sicilia,Acireale,IT9CIL,IT9CIL B,IT9CIL G,433.300000,DUP+,0.000000,DV,OFF,88.5Hz,YES,Exact,37.616667,15.166667,--:--
14,DV Sicilia,Agira,IR9XVU,IR9XVU B,IR9XVU G,430.350000,DUP+,5.000000,DV,OFF,88.5Hz,YES,Exact,37.651000,14.514500,--:--
14,DV Sicilia,Agrigento Hotspo,IT9VVZ,IT9VVZ C,IT9VVZ G,144.825000,DUP+,0.000000,DV,OFF,88.5Hz,YES,Exact,37.336000,13.585500,--:--
14,DV Sicilia,Agrigento Hotspo,IW9CJC,IW9CJC C,IW9CJC G,144.912500,DUP+,0.000000,DV,OFF,88.5Hz,YES,Exact,37.336000,13.585500,--:--
14,DV Sicilia,Barcellona,IR9UBR,IR9UBR B,IR9UBR G,430.725000,DUP+,5.000000,DV,OFF,88.5Hz,YES,Exact,38.156833,15.230167,--:--
14,DV Sicilia,Caltagirone,IW9BJU,IW9BJU C,IW9BJU G,144.850000,DUP+,0.000000,DV,OFF,88.5Hz,YES,Exact,37.237667,14.510333,--:--
14,DV Sicilia,Caltanissetta,IT9AOI,IT9AOI B,IT9AOI G,435.912500,DUP+,0.000000,DV,OFF,88.5Hz,YES,Exact,37.490833,14.050833,--:--
14,DV Sicilia,Caltanissetta,IT9BMH,IT9BMH C,IT9BMH G,145.775000,DUP-,0.600000,DV,OFF,88.5Hz,YES,Approximate,37.497333,14.067500,--:--
14,DV Sicilia,Castronovo PA,IR9AO,IR9AO  C,IR9AO  G,145.587500,DUP-,0.600000,DV,OFF,88.5Hz,YES,Exact,37.698667,13.594000,--:--
14,DV Sicilia,Catania,IR9UBM,IR9UBM B,IR9UBM G,430.325000,DUP+,5.000000,DV,OFF,88.5Hz,YES,Exact,37.531333,15.068833,--:--
14,DV Sicilia,Catania,IR9UBM,IR9UBM C,IR9UBM G,145.450000,DUP+,0.000000,DV,OFF,88.5Hz,YES,Exact,37.672667,15.061333,--:--
14,DV Sicilia,Catania,IR9UBU,IR9UBU B,IR9UBU G,430.400000,DUP+,5.000000,DV,OFF,88.5Hz,YES,Exact,37.626833,14.979833,--:--
14,DV Sicilia,Catania,IR9UX,IR9UX  C,IR9UX  G,145.662500,DUP-,0.600000,DV,OFF,88.5Hz,YES,Exact,37.750000,15.140000,--:--
14,DV Sicilia,Ficuzza Hotspot,IT9BFB,IT9BFB C,IT9BFB G,144.875000,DUP+,0.000000,DV,OFF,88.5Hz,YES,Exact,37.586667,13.753667,--:--
14,DV Sicilia,Ficuzza,IT9BFB,IT9BFB B,IT9BFB G,430.687500,DUP+,5.000000,DV,OFF,88.5Hz,YES,Exact,37.586667,13.753667,--:--
14,DV Sicilia,Menfi,IW9FZD,IW9FZD B,IW9FZD G,430.500000,DUP-,0.000000,DV,OFF,88.5Hz,YES,Exact,37.603833,12.950000,--:--
14,DV Sicilia,Menfi,IW9FZD,IW9FZD C,IW9FZD G,144.600000,DUP+,0.000000,DV,OFF,88.5Hz,YES,Exact,37.603833,12.950000,--:--
14,DV Sicilia,Monte Suzza AG,IT9CNT,IT9CNT B,IT9CNT G,430.562500,DUP+,5.000000,DV,OFF,88.5Hz,YES,Exact,37.361500,13.518667,--:--
14,DV Sicilia,Palermo,IR9P,IR9P   B,IR9P   G,430.150000,DUP+,1.600000,DV,OFF,88.5Hz,YES,Exact,38.177500,13.270000,--:--
14,DV Sicilia,Palermo,IR9P,IR9P   C,IR9P   G,145.637500,DUP-,0.600000,DV,OFF,88.5Hz,YES,Exact,38.177000,13.272000,--:--
14,DV Sicilia,Palermo,IT9EWK,IT9EWK B,IT9EWK G,433.612500,DUP-,0.000000,DV,OFF,88.5Hz,YES,Exact,38.143333,13.367167,--:--
14,DV Sicilia,Palermo,IT9FKM,IT9FKM B,IT9FKM G,433.612500,DUP+,0.000000,DV,OFF,88.5Hz,YES,Exact,38.191167,13.291833,--:--
14,DV Sicilia,Palermo,IT9SIF,IT9SIF C,IT9SIF G,145.337500,DUP+,0.000000,DV,OFF,88.5Hz,YES,Exact,38.055000,13.114667,--:--
14,DV Sicilia,Rupe Atenea AG,IR9UAK,IR9UAK B,IR9UAK G,430.400000,DUP+,5.000000,DV,OFF,88.5Hz,YES,Exact,37.307500,13.596333,--:--
14,DV Sicilia,San Leone Hotspo,IT9FRN,IT9FRN B,IT9FRN G,430.450000,DUP+,0.000000,DV,OFF,88.5Hz,YES,Exact,37.264833,13.571500,--:--
14,DV Sicilia,San Leone Hotspo,IT9FRN,IT9FRN C,IT9FRN G,144.937500,DUP+,0.000000,DV,OFF,88.5Hz,YES,Exact,37.260000,13.601000,--:--
14,DV Sicilia,Siracusa,IR9BP,IR9BP  C,IR9BP  G,144.650000,DUP+,0.000000,DV,OFF,88.5Hz,YES,Exact,37.089167,15.250333,--:--
14,DV Sicilia,Siracusa,IR9BQ,IR9BQ  B,IR9BQ  G,430.500000,DUP+,5.000000,DV,OFF,88.5Hz,YES,Exact,37.092167,15.215333,--:--
14,DV Sicilia,Siracusa,IR9BQ,IR9BQ  C,IR9BQ  G,144.825000,DUP+,0.000000,DV,OFF,88.5Hz,YES,Exact,37.091667,15.215000,--:--
14,DV Sicilia,Siracusa,IT9BWD,IT9BWD B,IT9BWD G,430.525000,DUP+,0.000000,DV,OFF,88.5Hz,YES,Exact,37.070833,15.269833,--:--
14,DV Sicilia,Siracusa,IT9BWW,IT9BWW B,IT9BWW G,430.825000,DUP+,0.000000,DV,OFF,88.5Hz,YES,Exact,37.067000,15.284500,--:--
14,DV Sicilia,Valledolmo PA,IW9HRS,IW9HRS B,IW9HRS G,430.700000,DUP+,5.000000,DV,OFF,88.5Hz,YES,Exact,37.680167,13.875667,--:--
14,DV Sicilia,Valverde,IR9UBK,IR9UBK B,IR9UBK G,430.375000,DUP+,5.000000,DV,OFF,88.5Hz,YES,Exact,37.581167,15.131167,--:--
15,DV Abruzzo,Ascoli,IK6RJU,IK6RJU B,IK6RJU G,431.500000,DUP+,0.000000,DV,OFF,88.5Hz,YES,Exact,42.855833,13.618333,--:--
15,DV Abruzzo,Campo Staffi,IR0UFJ,IR0UFJ B,IR0UFJ G,430.825000,DUP+,5.000000,DV,OFF,88.5Hz,YES,Exact,41.928667,13.336333,--:--
15,DV Abruzzo,L'Aquila,IR6L,IR6L   C,IR6L   G,145.650000,DUP-,0.600000,DV,OFF,88.5Hz,YES,Exact,42.363667,13.424667,+1:00
15,DV Abruzzo,M. Majella,IR6UCC,IR6UCC A,IR6UCC G,1297.200000,DUP-,30.000000,DV,OFF,88.5Hz,YES,Exact,42.157833,14.127667,--:--
15,DV Abruzzo,M. Majella,IR6UCC,IR6UCC B,IR6UCC G,430.012500,DUP+,5.000000,DV,OFF,88.5Hz,YES,Exact,42.157833,14.127667,+1:00
15,DV Abruzzo,M. Majella,IR6UCC,IR6UCC C,IR6UCC G,145.687500,DUP-,0.600000,DV,OFF,88.5Hz,YES,Exact,42.157833,14.127667,+1:00
15,DV Abruzzo,Manoppello,IW6PQB,IW6PQB B,IW6PQB G,433.450000,DUP+,0.000000,DV,OFF,88.5Hz,YES,Exact,42.309000,14.052833,--:--
15,DV Abruzzo,Oricola,IR6UDG,IR6UDG B,IR6UDG G,431.575000,DUP+,1.600000,DV,OFF,88.5Hz,YES,Exact,42.048650,13.044600,--:--
15,DV Abruzzo,Ortona,IR6UCX,IR6UCX B,IR6UCX G,430.250000,DUP+,5.000000,DV,OFF,88.5Hz,YES,Exact,42.347833,14.403333,+1:00
15,DV Abruzzo,San Nicandro,IZ6BGQ,IZ6BGQ B,IZ6BGQ G,430.300000,DUP+,5.000000,DV,OFF,88.5Hz,YES,Exact,42.283667,13.592500,--:--
15,DV Abruzzo,San Pelino,IW6NFT,IW6NFT B,IW6NFT G,434.325000,DUP+,0.000000,DV,OFF,88.5Hz,YES,Exact,42.051167,13.463500,--:--
15,DV Abruzzo,Sulmona,IR6UDO,IR6UDO B,IR6UDO G,430.137500,DUP+,1.600000,DV,OFF,88.5Hz,YES,Exact,42.042333,13.927833,+1:00
15,DV Abruzzo,Teramo,IZ6SDO,IZ6SDO B,IZ6SDO G,433.575000,DUP+,0.000000,DV,OFF,88.5Hz,YES,Exact,42.658333,13.709833,--:--
16,DV Campania,Avellino,IR8UAE,IR8UAE B,IR8UAE G,430.225000,DUP+,5.000000,DV,OFF,88.5Hz,YES,Exact,41.052333,15.235500,+1:00
16,DV Campania,Avellino,IR8UAF,IR8UAF B,IR8UAF G,430.500000,DUP+,5.000000,DV,OFF,88.5Hz,YES,Exact,40.934500,14.724667,+1:00
16,DV Campania,Benevento,IR8BA,IR8BA  C,IR8BA  G,145.787500,DUP-,0.600000,DV,OFF,88.5Hz,YES,Exact,41.167167,14.596667,+1:00
16,DV Campania,Benevento,IR8UAG,IR8UAG B,IR8UAG G,431.925000,DUP-,5.000000,DV,OFF,88.5Hz,YES,Exact,41.100167,14.578333,+1:00
16,DV Campania,Chiusano AV,IW8EPS,IW8EPS C,IW8EPS G,144.462500,DUP+,0.000000,DV,OFF,88.5Hz,YES,Approximate,40.932167,14.916000,--:--
16,DV Campania,Melfi,IU8BPS,IU8BPS B,IU8BPS G,431.675000,DUP-,1.600000,DV,OFF,88.5Hz,YES,Exact,40.949333,15.570333,+1:00
16,DV Campania,Montaguto,IW8DDV,IW8DDV C,IW8DDV G,144.962500,DUP+,0.000000,DV,OFF,88.5Hz,YES,Exact,41.249167,15.249000,+1:00
16,DV Campania,Napoli,IK8JHL,IK8JHL B,IK8JKL G,430.600000,DUP+,5.000000,DV,OFF,88.5Hz,YES,Exact,40.849000,14.236333,+1:00
16,DV Campania,Polla SA,IW8EQE,IW8EQE C,IW8EQE G,144.512500,DUP+,0.000000,DV,OFF,88.5Hz,YES,Exact,40.500000,15.468000,--:--
16,DV Campania,Potenza,IR8UC,IR8UC  B,IR8UC  G,430.025000,DUP+,1.600000,DV,OFF,88.5Hz,YES,Approximate,40.504500,15.752333,+1:00
16,DV Campania,Rotondi AV,IZ8DSX,IZ8DSX C,IZ8DSX G,144.912500,DUP+,0.000000,DV,OFF,88.5Hz,YES,Exact,41.034333,14.594000,--:--
16,DV Campania,Sala Consilina,IZ8CSD,IZ8CSD B,IZ8CSD G,430.400000,DUP+,5.000000,DV,OFF,88.5Hz,YES,Exact,40.415500,15.566833,--:--
16,DV Campania,Salerno,IK8SUT,IK8SUT B,IK8SUT G,433.500000,DUP+,0.000000,DV,OFF,88.5Hz,YES,Exact,40.688000,14.770500,+1:00
16,DV Campania,Serino,IZ8QAD,IZ8QAD B,IZ8QAD G,430.887500,DUP-,5.000000,DV,OFF,88.5Hz,YES,Exact,40.858333,14.874500,+1:00
16,DV Campania,Summonte,IW8EQE,IW8EQE B,IW8EQE G,430.162500,DUP+,0.000000,DV,OFF,88.5Hz,YES,Exact,41.095833,14.774167,+1:00
