Group No,Group Name,Name,Sub Name,Repeater Call Sign,Gateway Call Sign,Frequency,Dup,Offset,Mode,TONE,Repeater Tone,RPT1USE,Position,Latitude,Longitude,UTC Offset
1,Africa,Farm Ozondjisse,Namibia,V53DV  B,V53DV  G,439.500000,DUP-,7.600000,DV,OFF,88.5Hz,YES,Approximate,-21.210000,16.300000,+1:00
1,Africa,Farm Ozondjisse,Namibia,V53DV  C,V53DV  G,145.600000,DUP-,0.600000,DV,OFF,88.5Hz,YES,Approximate,-21.210000,16.300000,+1:00
1,Africa,Windhoek,Namibia,V53W   C,V53W   G,145.700000,DUP-,0.600000,DV,OFF,88.5Hz,YES,Approximate,-22.650000,17.180000,+1:00
1,Africa,Pretoria,S. Afric,ZS0JPL B,ZS0JPL G,438.262500,DUP-,7.600000,DV,OFF,88.5Hz,YES,Approximate,-25.730000,28.270000,+2:00
1,Africa,Pretoria,S. Afric,ZS6MRK B,ZS6MRK G,438.275000,DUP-,7.600000,DV,OFF,88.5Hz,YES,Approximate,-25.680000,27.990000,+2:00
1,Africa,Pretoria,S. Afric,ZS6VTS B,ZS6VTS G,438.250000,DUP-,7.600000,DV,OFF,88.5Hz,YES,Approximate,-25.750000,28.290000,+2:00
1,Africa,Sandton,S. Afric,ZS6STN C,ZS6STN G,145.825000,DUP-,0.600000,DV,OFF,88.5Hz,YES,Approximate,-26.100000,28.060000,+2:00
1,Africa,Forli,Emila-Ro,IR4UI  B,IR4UI  G,430.112500,DUP+,1.600000,DV,OFF,88.5Hz,YES,Exact,44.113833,12.004333,+1:00
2,Asia,Shenyang,China,BR2SY  B,BR2SY  G,439.700000,DUP-,5.000000,DV,OFF,88.5Hz,YES,Approximate,41.870000,123.390000,+8:00
2,Asia,Shenyang- Liaoni,China,BR2RSA B,BR2RSA G,439.725000,DUP-,5.000000,DV,OFF,88.5Hz,YES,Approximate,41.790000,123.360000,+4:30
2,Asia,Troodos Mt.,Cyprus,5B4CY  C,5B4CY  G,145.637500,DUP-,0.600000,DV,OFF,88.5Hz,YES,Approximate,34.940000,32.860000,+2:00
2,Asia,Ulsan,Korea- R,6M0UM  B,6M0UM  G,439.500000,DUP-,5.000000,DV,OFF,88.5Hz,YES,Approximate,35.660000,129.340000,+9:00
2,Asia,Taoyuan,Taiwan,BX3AH  B,BX3AH  G,433.337500,DUP+,6.000000,DV,OFF,88.5Hz,YES,Approximate,24.990000,121.310000,+8:00
2,Asia,Taoyuan,Taiwan,BX3AH  C,BX3AH  G,144.337500,DUP+,2.000000,DV,OFF,88.5Hz,YES,Approximate,24.990000,121.310000,+8:00
2,Asia,Taoyuan,Taiwan,BX4ACB C,BX4ACB G,144.337500,DUP+,2.000000,DV,OFF,88.5Hz,YES,Approximate,24.990000,121.310000,+8:00
2,Asia,Bangkok,Thailand,E24DA  B,E24DA  G,438.012500,DUP-,5.000000,DV,OFF,88.5Hz,YES,Approximate,13.790000,100.560000,+7:00
2,Asia,Bangkok,Thailand,E24DA  C,E24DA  G,145.612500,DUP-,0.600000,DV,OFF,88.5Hz,YES,Approximate,13.790000,100.560000,+7:00
2,Asia,Chiang Mai,Thailand,E24DG  B,E24DG  G,438.012500,DUP-,5.000000,DV,OFF,88.5Hz,YES,Approximate,18.830000,99.010000,+7:00
2,Asia,Chiang Mai,Thailand,E24DG  C,E24DG  G,145.612500,DUP-,0.600000,DV,OFF,88.5Hz,YES,Approximate,18.830000,99.010000,+7:00
2,Asia,Chonburi,Thailand,E24DC  B,E24DC  G,438.012500,DUP-,5.000000,DV,OFF,88.5Hz,YES,Approximate,13.200000,100.950000,+7:00
2,Asia,Chonburi,Thailand,E24DC  C,E24DC  G,145.612500,DUP-,0.600000,DV,OFF,88.5Hz,YES,Approximate,13.200000,100.950000,+7:00
2,Asia,Maha Sarakham,Thailand,E24DE  B,E24DE  G,438.012500,DUP-,5.000000,DV,OFF,88.5Hz,YES,Approximate,16.170000,103.330000,+7:00
2,Asia,Maha Sarakham,Thailand,E24DE  C,E24DE  G,145.612500,DUP-,0.600000,DV,OFF,88.5Hz,YES,Approximate,16.170000,103.330000,+7:00
2,Asia,Pathum Thani,Thailand,E24DB  B,E24DB  G,438.012500,DUP-,5.000000,DV,OFF,88.5Hz,YES,Approximate,14.040000,100.610000,+7:00
2,Asia,Pathum Thani,Thailand,E24DB  C,E24DB  G,145.612500,DUP-,0.600000,DV,OFF,88.5Hz,YES,Approximate,14.040000,100.610000,+7:00
2,Asia,Phitsanulok,Thailand,E24DF  B,E24DF  G,438.012500,DUP-,5.000000,DV,OFF,88.5Hz,YES,Approximate,16.890000,100.710000,+7:00
2,Asia,Phitsanulok,Thailand,E24DF  C,E24DF  G,145.612500,DUP-,0.600000,DV,OFF,88.5Hz,YES,Approximate,16.890000,100.710000,+7:00
2,Asia,Phuket,Thailand,E24DJ  B,E24DJ  G,438.012500,DUP-,5.000000,DV,OFF,88.5Hz,YES,Approximate,7.880000,98.370000,+7:00
2,Asia,Phuket,Thailand,E24DJ  C,E24DJ  G,145.612500,DUP-,0.600000,DV,OFF,88.5Hz,YES,Approximate,7.880000,98.370000,+7:00
2,Asia,Ranong,Thailand,E24DH  B,E24DH  G,438.012500,DUP-,5.000000,DV,OFF,88.5Hz,YES,Approximate,10.040000,98.680000,+7:00
2,Asia,Ranong,Thailand,E24DH  C,E24DH  G,145.612500,DUP-,0.600000,DV,OFF,88.5Hz,YES,Approximate,10.040000,98.680000,+7:00
2,Asia,Songkhla,Thailand,E24DI  B,E24DI  G,438.012500,DUP-,5.000000,DV,OFF,88.5Hz,YES,Approximate,7.010000,100.510000,+7:00
2,Asia,Songkhla,Thailand,E24DI  C,E24DI  G,145.612500,DUP-,0.600000,DV,OFF,88.5Hz,YES,Approximate,7.010000,100.510000,+7:00
2,Asia,Surin,Thailand,E24DD  B,E24DD  G,438.012500,DUP-,5.000000,DV,OFF,88.5Hz,YES,Approximate,14.890000,103.510000,+7:00
2,Asia,Surin,Thailand,E24DD  C,E24DD  G,145.612500,DUP-,0.600000,DV,OFF,88.5Hz,YES,Approximate,14.890000,103.510000,+7:00
2,Asia,Istanbul,Turkey,TB1HEC A,TB1HEC G,145.375000,DUP-,0.000000,DV,OFF,88.5Hz,YES,Approximate,41.080000,28.900000,+2:00
2,Asia,Sharjah,UAE,A62A   C,A62A   G,145.787500,DUP-,1.000000,DV,OFF,88.5Hz,YES,Approximate,25.280000,55.590000,+4:00
3,Australia,Mt Tamborine,Australi,VK4RDK B,VK4RDK G,438.312500,DUP-,5.400000,DV,OFF,88.5Hz,YES,Approximate,-27.990000,153.190000,+10:00
3,Australia,Wongawallan,Australi,VK4RDW B,VK4RDW G,438.350000,DUP-,5.400000,DV,OFF,88.5Hz,YES,Approximate,-27.880000,153.260000,+10:00
3,Australia,Gosford / Wyong,New Sout,VK2RAG B,VK2RAG G,438.325000,DUP-,5.400000,DV,OFF,88.5Hz,YES,Approximate,-33.360000,151.300000,+10:00
3,Australia,Gosford / Wyong,New Sout,VK2RAG C,VK2RAG G,146.637500,DUP-,0.600000,DV,OFF,88.5Hz,YES,Approximate,-33.360000,151.300000,+10:00
3,Australia,North Sydney,New Sout,VK2RWN A,VK2RWN G,1273.700000,DUP+,20.000000,DV,OFF,88.5Hz,YES,Approximate,-33.690000,151.230000,+10:00
3,Australia,North Sydney,New Sout,VK2RWN B,VK2RWN G,438.400000,DUP-,5.400000,DV,OFF,88.5Hz,YES,Approximate,-33.690000,151.230000,+10:00
3,Australia,North Sydney,New Sout,VK2RWN C,VK2RWN G,146.962500,DUP-,0.600000,DV,OFF,88.5Hz,YES,Approximate,-33.690000,151.230000,+10:00
3,Australia,Wyee,New Sout,VK2RHK B,VK2RHK G,438.125000,DUP-,5.400000,DV,OFF,88.5Hz,YES,Approximate,-33.180000,151.500000,+10:00
3,Australia,Darwin,Northern,VK8RAD A,VK8RAD G,1293.400000,DUP-,20.000000,DV,OFF,88.5Hz,YES,Approximate,-12.460000,130.850000,+9:30
3,Australia,Darwin,Northern,VK8RAD B,VK8RAD G,438.750000,DUP-,5.000000,DV,OFF,88.5Hz,YES,Approximate,-12.460000,130.850000,+9:30
3,Australia,Darwin,Northern,VK8RAD C,VK8RAD G,146.700000,DUP-,0.600000,DV,OFF,88.5Hz,YES,Approximate,-12.460000,130.850000,+9:30
3,Australia,Blackwater,Queensla,VK4RBD C,VK4RBD G,146.637500,DUP-,0.600000,DV,OFF,88.5Hz,YES,Approximate,-23.770000,149.120000,+10:00
3,Australia,Ipswich,Queensla,VK4RBX C,VK4RBX G,146.787500,DUP-,0.600000,DV,OFF,88.5Hz,YES,Approximate,-27.500000,152.600000,+10:00
3,Australia,Landsborough,Queensla,VK4RDS B,VK4RDS G,438.600000,DUP-,5.000000,DV,OFF,88.5Hz,YES,Approximate,-26.770000,152.920000,+10:00
3,Australia,Landsborough,Queensla,VK4RDS C,VK4RDS G,146.737500,DUP-,0.600000,DV,OFF,88.5Hz,YES,Approximate,-26.770000,152.920000,+10:00
3,Australia,Mackay,Queensla,VK4RBY B,VK4RBY G,438.600000,DUP-,5.000000,DV,OFF,88.5Hz,YES,Approximate,-21.060000,149.100000,+10:00
3,Australia,Mackay,Queensla,VK4RBY C,VK4RBY G,146.650000,DUP-,0.600000,DV,OFF,88.5Hz,YES,Approximate,-21.060000,149.100000,+10:00
3,Australia,Sarina,Queensla,VK4RSA C,VK4RSA G,147.075000,DUP+,0.600000,DV,OFF,88.5Hz,YES,Approximate,-21.490000,149.170000,+10:00
3,Australia,Sarina,Queensla,VK4RUS B,VK4RUS G,438.450000,DUP-,5.000000,DV,OFF,88.5Hz,YES,Approximate,-21.390000,149.240000,+10:00
3,Australia,Adelaide,South Au,VK5RWN A,VK5RWN G,1273.700000,DUP+,20.000000,DV,OFF,88.5Hz,YES,Approximate,-34.810000,138.750000,+9:30
3,Australia,Adelaide,South Au,VK5RWN B,VK5RWN G,438.400000,DUP-,5.400000,DV,OFF,88.5Hz,YES,Approximate,-34.810000,138.750000,+9:30
3,Australia,Adelaide,South Au,VK5RWN C,VK5RWN G,147.037500,DUP+,0.600000,DV,OFF,88.5Hz,YES,Approximate,-34.810000,138.750000,+9:30
3,Australia,Port Lincon,South Au,VK5REX B,VK5REX G,438.225000,DUP-,5.400000,DV,OFF,88.5Hz,YES,Approximate,-34.700000,135.830000,+9:30
3,Australia,Hobart,Tasmania,VK7RCR C,VK7RCR G,146.962500,DUP-,1.600000,DV,OFF,88.5Hz,YES,Approximate,-42.860000,147.280000,+10:00
3,Australia,Richmond,Tasmania,VK7RRR B,VK7RRR G,438.125000,DUP-,5.400000,DV,OFF,88.5Hz,YES,Approximate,-42.740000,147.430000,+9:30
3,Australia,Wynyard,Tasmania,VK7RAC B,VK7RAC G,438.700000,DUP-,7.000000,DV,OFF,88.5Hz,YES,Approximate,-40.950000,145.730000,+11:00
3,Australia,Melbourne,Victoria,VK3RMC B,VK3RMC G,438.125000,DUP-,5.400000,DV,OFF,88.5Hz,YES,Approximate,-38.000000,145.330000,+10:00
3,Australia,Melbourne,Victoria,VK3RMC C,VK3RMC G,146.762500,DUP-,0.600000,DV,OFF,88.5Hz,YES,Approximate,-38.000000,145.330000,+10:00
3,Australia,Melbourne,Victoria,VK3RMM B,VK3RMM G,438.050000,DUP-,5.400000,DV,OFF,88.5Hz,YES,Approximate,-37.380000,144.580000,+10:00
3,Australia,Melbourne,Victoria,VK3RWN A,VK3RWN G,1273.900000,DUP+,20.000000,DV,OFF,88.5Hz,YES,Approximate,-37.850000,145.370000,+10:00
3,Australia,Melbourne,Victoria,VK3RWN B,VK3RWN G,438.300000,DUP-,5.400000,DV,OFF,88.5Hz,YES,Approximate,-37.850000,145.370000,+10:00
3,Australia,Melbourne,Victoria,VK3RWN C,VK3RWN G,146.912500,DUP-,0.600000,DV,OFF,88.5Hz,YES,Approximate,-37.850000,145.370000,+10:00
3,Australia,Portable,Victoria,VK3RWW A,VK3RWW G,1273.850000,DUP+,20.000000,DV,OFF,88.5Hz,YES,Approximate,-36.840000,145.680000,+10:00
3,Australia,Portable,Victoria,VK3RWW B,VK3RWW G,438.150000,DUP-,5.400000,DV,OFF,88.5Hz,YES,Approximate,-36.840000,145.680000,+10:00
3,Australia,Perth,Western,VK6RWN A,VK6RWN G,1273.900000,DUP+,20.000000,DV,OFF,88.5Hz,YES,Approximate,-31.990000,116.070000,+8:00
3,Australia,Perth,Western,VK6RWN B,VK6RWN G,438.175000,DUP-,5.400000,DV,OFF,88.5Hz,YES,Approximate,-31.990000,116.070000,+8:00
3,Australia,Perth,Western,VK6RWN C,VK6RWN G,146.837500,DUP-,0.600000,DV,OFF,88.5Hz,YES,Approximate,-31.990000,116.070000,+8:00
4,Canada,Calgary,AB,VA6ACW B,VA6ACW G,445.850000,DUP-,0.000000,DV,OFF,88.5Hz,YES,Approximate,51.130000,-114.250000,-7:00
4,Canada,Calgary,AB,VA6ACW C,VA6ACW G,145.650000,DUP-,0.000000,DV,OFF,88.5Hz,YES,Approximate,51.130000,-114.250000,-7:00
4,Canada,Calgary,AB,VE6GHZ A,VE6GHZ G,1287.975000,DUP-,20.000000,DV,OFF,88.5Hz,YES,Approximate,51.140000,-114.160000,-7:00
4,Canada,Calgary,AB,VE6GHZ B,VE6GHZ G,444.950000,DUP+,5.000000,DV,OFF,88.5Hz,YES,Approximate,51.140000,-114.160000,-7:00
4,Canada,Calgary,AB,VE6GHZ C,VE6GHZ G,147.090000,DUP+,0.600000,DV,OFF,88.5Hz,YES,Approximate,51.140000,-114.160000,-7:00
4,Canada,Calgary,AB,VE6IPG A,VE6IPG G,1275.950000,DUP+,12.000000,DV,OFF,88.5Hz,YES,Approximate,50.970000,-114.070000,-7:00
4,Canada,Calgary,AB,VE6IPG B,VE6IPG G,444.962500,DUP+,5.000000,DV,OFF,88.5Hz,YES,Approximate,50.970000,-114.070000,-7:00
4,Canada,Calgary,AB,VE6IPG C,VE6IPG G,147.285000,DUP+,0.600000,DV,OFF,88.5Hz,YES,Approximate,50.970000,-114.070000,-7:00
4,Canada,Calgary,AB,VE6WRE B,VE6WRE G,444.825000,DUP+,5.000000,DV,OFF,88.5Hz,YES,Approximate,51.040000,-114.160000,-7:00
4,Canada,Calgary,AB,VE6WRN A,VE6WRN G,1287.500000,DUP-,20.000000,DV,OFF,88.5Hz,YES,Approximate,51.080000,-114.210000,-7:00
4,Canada,Calgary,AB,VE6WRN B,VE6WRN G,444.925000,DUP+,5.000000,DV,OFF,88.5Hz,YES,Approximate,51.080000,-114.210000,-7:00
4,Canada,Calgary,AB,VE6WRN C,VE6WRN G,146.805000,DUP-,1.200000,DV,OFF,88.5Hz,YES,Approximate,51.080000,-114.210000,-7:00
4,Canada,Edmonton,AB,VA6XG  A,VA6XG  G,1282.000000,DUP-,12.000000,DV,OFF,88.5Hz,YES,Approximate,53.470000,-113.560000,-7:00
4,Canada,Edmonton,AB,VA6XG  B,VA6XG  G,446.475000,DUP-,0.000000,DV,OFF,88.5Hz,YES,Approximate,53.470000,-113.560000,-7:00
4,Canada,Edmonton,AB,VA6XG  C,VA6XG  G,145.710000,DUP-,0.000000,DV,OFF,88.5Hz,YES,Approximate,53.470000,-113.560000,-7:00
4,Canada,Edmonton,AB,VE6KM  B,VE6KM  G,444.900000,DUP+,5.000000,DV,OFF,88.5Hz,YES,Approximate,53.530000,-113.340000,-7:00
4,Canada,Edmonton,AB,VE6KM  C,VE6KM  G,145.470000,DUP-,0.600000,DV,OFF,88.5Hz,YES,Approximate,53.530000,-113.340000,-7:00
4,Canada,Medicine Hat,AB,VA6SRG B,VA6SRG G,444.800000,DUP+,5.000000,DV,OFF,88.5Hz,YES,Approximate,49.970000,-110.580000,-7:00
4,Canada,Medicine Hat,AB,VE6MHD B,VE6MHD G,445.900000,DUP-,0.000000,DV,OFF,88.5Hz,YES,Approximate,50.010000,-110.630000,-7:00
4,Canada,St.Albert,AB,VE6JKB B,VE6JKB G,444.250000,DUP+,5.000000,DV,OFF,88.5Hz,YES,Approximate,53.640000,-113.670000,-7:00
4,Canada,Chilliwack,BC,VE7RCK B,VE7RCK G,444.625000,DUP+,5.000000,DV,OFF,88.5Hz,YES,Approximate,49.110000,-121.900000,-8:00
4,Canada,Chilliwack,BC,VE7RCK C,VE7RCK G,145.060000,DUP+,0.600000,DV,OFF,88.5Hz,YES,Approximate,49.110000,-121.900000,-8:00
4,Canada,Kelowna,BC,VA7DIG A,VA7DIG G,1247.000000,DUP+,12.000000,DV,OFF,88.5Hz,YES,Approximate,49.880000,-119.460000,-8:00
4,Canada,Kelowna,BC,VA7DIG B,VA7DIG G,440.950000,DUP+,5.000000,DV,OFF,88.5Hz,YES,Approximate,49.880000,-119.460000,-8:00
4,Canada,Kelowna,BC,VA7DIG C,VA7DIG G,145.030000,DUP+,0.600000,DV,OFF,88.5Hz,YES,Approximate,49.880000,-119.460000,-8:00
4,Canada,Maple Ridge,BC,VE7RMR B,VE7RMR G,440.800000,DUP+,5.000000,DV,OFF,88.5Hz,YES,Approximate,49.210000,-122.510000,-8:00
4,Canada,Mt Seymour,BC,VE7RAG A,VE7RAG G,1291.940000,DUP-,20.000000,DV,OFF,88.5Hz,YES,Approximate,49.370000,-122.950000,-8:00
4,Canada,Mt Seymour,BC,VE7RAG B,VE7RAG G,443.400000,DUP+,5.000000,DV,OFF,88.5Hz,YES,Approximate,49.370000,-122.950000,-8:00
4,Canada,Mt Seymour,BC,VE7RAG C,VE7RAG G,147.020000,DUP+,0.600000,DV,OFF,88.5Hz,YES,Approximate,49.370000,-122.950000,-8:00
4,Canada,Prince George,BC,VE7RES A,VE7RES G,1291.940000,DUP-,20.000000,DV,OFF,88.5Hz,YES,Approximate,53.900000,-122.760000,-8:00
4,Canada,Prince George,BC,VE7RES B,VE7RES G,442.100000,DUP+,5.000000,DV,OFF,88.5Hz,YES,Approximate,53.900000,-122.760000,-8:00
4,Canada,Prince George,BC,VE7RES C,VE7RES G,147.020000,DUP+,0.600000,DV,OFF,88.5Hz,YES,Approximate,53.900000,-122.760000,-8:00
4,Canada,Richmond,BC,VA7REF C,VA7REF G,144.930000,DUP-,0.000000,DV,OFF,88.5Hz,YES,Approximate,49.180000,-122.960000,-8:00
4,Canada,Vancouver,BC,VA7ICM A,VA7ICM G,1247.000000,DUP+,12.000000,DV,OFF,88.5Hz,YES,Approximate,49.190000,-122.830000,-8:00
4,Canada,Vancouver,BC,VA7ICM B,VA7ICM G,442.000000,DUP+,5.000000,DV,OFF,88.5Hz,YES,Approximate,49.190000,-122.830000,-8:00
4,Canada,Vancouver,BC,VA7ICM C,VA7ICM G,145.040000,DUP+,0.600000,DV,OFF,88.5Hz,YES,Approximate,49.190000,-122.830000,-8:00
4,Canada,Victoria,BC,VE7VIC C,VE7VIC G,145.080000,DUP+,0.600000,DV,OFF,88.5Hz,YES,Approximate,48.500000,-123.500000,-8:00
4,Canada,Whistler,BC,VA7WHI C,VA7WHI G,146.220000,DUP+,0.600000,DV,OFF,88.5Hz,YES,Approximate,50.120000,-122.960000,-8:00
4,Canada,Winnipeg,MB,VE4UMR B,VE4UMR G,443.275000,DUP+,5.000000,DV,OFF,88.5Hz,YES,Approximate,32.970000,-96.440000,-6:00
4,Canada,Winnipeg,MB,VE4WDR B,VE4WDR G,444.575000,DUP+,5.000000,DV,OFF,88.5Hz,YES,Approximate,49.880000,-97.150000,-6:00
4,Canada,Winnipeg,MB,VE4WDR C,VE4WDR G,145.490000,DUP-,0.600000,DV,OFF,88.5Hz,YES,Approximate,49.880000,-97.150000,-6:00
4,Canada,St Johns,NL,VO1TZ  B,VO1TZ  G,443.400000,DUP+,5.000000,DV,OFF,88.5Hz,YES,Approximate,47.530000,-52.840000,-3:00
4,Canada,St Johns,NL,VO1TZ  C,VO1TZ  G,145.090000,DUP+,0.600000,DV,OFF,88.5Hz,YES,Approximate,47.530000,-52.840000,-3:00
4,Canada,Antigonish,NS,VE1JSR B,VE1JSR G,441.800000,DUP+,5.000000,DV,OFF,88.5Hz,YES,Approximate,45.620000,-61.970000,-2:00
4,Canada,Biblehill,NS,VE1DNR A,VE1DNR G,1247.000000,DUP+,12.000000,DV,OFF,88.5Hz,YES,Approximate,45.380000,-63.230000,-5:00
4,Canada,Biblehill,NS,VE1DNR B,VE1DNR G,442.000000,DUP+,5.000000,DV,OFF,88.5Hz,YES,Approximate,45.380000,-63.230000,-5:00
4,Canada,Biblehill,NS,VE1DNR C,VE1DNR G,144.950000,DUP+,0.600000,DV,OFF,88.5Hz,YES,Approximate,45.380000,-63.230000,-5:00
4,Canada,Almonte,ON,VA3AAR A,VA3AAR G,1281.000000,DUP-,12.000000,DV,OFF,88.5Hz,YES,Approximate,45.170000,-76.290000,-5:00
4,Canada,Almonte,ON,VA3AAR B,VA3AAR G,444.100000,DUP+,5.000000,DV,OFF,88.5Hz,YES,Approximate,45.170000,-76.290000,-5:00
4,Canada,Almonte,ON,VA3AAR C,VA3AAR G,145.550000,DUP-,0.600000,DV,OFF,88.5Hz,YES,Approximate,45.170000,-76.290000,-5:00
4,Canada,Burlington,ON,VE3RSB B,VE3RSB G,442.037500,DUP+,5.000000,DV,OFF,88.5Hz,YES,Approximate,43.360000,-79.860000,-5:00
4,Canada,Cornwall,ON,VA3SDG B,VA3SDG G,444.450000,DUP+,5.000000,DV,OFF,88.5Hz,YES,Approximate,45.040000,-74.740000,-5:00
4,Canada,Cornwall,ON,VA3SDG C,VA3SDG G,145.570000,DUP-,0.600000,DV,OFF,88.5Hz,YES,Approximate,45.040000,-74.740000,-5:00
4,Canada,Fonthill- ON,ON,VE3PLF B,VE3PLF G,444.725000,DUP+,5.000000,DV,OFF,88.5Hz,YES,Approximate,43.050000,-79.300000,-5:00
4,Canada,Hamilton,ON,VE3WIK B,VE3WIK G,443.637500,DUP+,5.000000,DV,OFF,88.5Hz,YES,Approximate,43.390000,-79.970000,-5:00
4,Canada,Hamilton,ON,VE3WIK C,VE3WIK G,145.330000,DUP-,0.600000,DV,OFF,88.5Hz,YES,Approximate,43.390000,-79.970000,-5:00
4,Canada,Leamington,ON,VE3LNK C,VE3LNK G,145.690000,DUP-,0.000000,DV,OFF,88.5Hz,YES,Approximate,42.060000,-82.600000,-5:00
4,Canada,Little Current,ON,VE3RXR B,VE3RXR G,442.050000,DUP+,5.000000,DV,OFF,88.5Hz,YES,Approximate,45.960000,-81.930000,-5:00
4,Canada,Little Current,ON,VE3RXR C,VE3RXR G,145.310000,DUP-,0.600000,DV,OFF,88.5Hz,YES,Approximate,45.960000,-81.930000,-5:00
4,Canada,London,ON,VE3TTT B,VE3TTT G,442.300000,DUP+,5.000000,DV,OFF,88.5Hz,YES,Approximate,42.990000,-81.240000,-5:00
4,Canada,Maple,ON,VA3ITL B,VA3ITL G,442.212500,DUP+,5.000000,DV,OFF,88.5Hz,YES,Approximate,44.110000,-79.190000,-5:00
4,Canada,Mississauga,ON,VA3PMO B,VA3PMO G,444.250000,DUP+,5.000000,DV,OFF,88.5Hz,YES,Approximate,43.590000,-79.640000,-5:00
4,Canada,Mississauga,ON,VE3RSD B,VE3RSD G,443.812500,DUP+,5.000000,DV,OFF,88.5Hz,YES,Approximate,43.600000,-79.780000,-5:00
4,Canada,Mississauga,ON,VE3RSD C,VE3RSD G,147.540000,DUP-,0.000000,DV,OFF,88.5Hz,YES,Approximate,43.600000,-79.780000,-5:00
4,Canada,Mt.St. Patrick,ON,VE3STP A,VE3STP G,1282.450000,DUP-,12.000000,DV,OFF,88.5Hz,YES,Approximate,45.310000,-76.900000,-5:00
4,Canada,Mt.St. Patrick,ON,VE3STP B,VE3STP G,443.812500,DUP+,5.000000,DV,OFF,88.5Hz,YES,Approximate,45.310000,-76.900000,-5:00
4,Canada,Mt.St. Patrick,ON,VE3STP C,VE3STP G,147.540000,DUP-,0.000000,DV,OFF,88.5Hz,YES,Approximate,45.310000,-76.900000,-5:00
4,Canada,Newmarket,ON,VE3YRK B,VE3YRK G,444.512500,DUP+,5.000000,DV,OFF,88.5Hz,YES,Approximate,44.060000,-79.450000,-5:00
4,Canada,Newmarket,ON,VE3YRK C,VE3YRK G,147.180000,DUP+,0.600000,DV,OFF,88.5Hz,YES,Approximate,44.060000,-79.450000,-5:00
4,Canada,Niagara on the L,ON,VA3NAG A,VA3NAG G,1282.500000,DUP-,12.000000,DV,OFF,88.5Hz,YES,Approximate,43.220000,-79.130000,-5:00
4,Canada,Niagara on the L,ON,VA3YYZ B,VA3YYZ G,442.687500,DUP+,5.000000,DV,OFF,88.5Hz,YES,Approximate,43.220000,-79.130000,-5:00
4,Canada,Niagara on the L,ON,VA3YYZ C,VA3YYZ G,144.930000,DUP+,0.600000,DV,OFF,88.5Hz,YES,Approximate,43.220000,-79.130000,-5:00
4,Canada,Norfolk,ON,VE3HJ  B,VE3HJ  G,444.550000,DUP+,5.000000,DV,OFF,88.5Hz,YES,Approximate,42.930000,-80.280000,-5:00
4,Canada,Ottawa,ON,VA3ODG A,VA3ODG G,1282.000000,DUP-,12.000000,DV,OFF,88.5Hz,YES,Approximate,45.420000,-75.680000,-5:00
4,Canada,Ottawa,ON,VA3ODG B,VA3ODG G,444.850000,DUP+,5.000000,DV,OFF,88.5Hz,YES,Approximate,45.420000,-75.680000,-5:00
4,Canada,Ottawa,ON,VA3ODG C,VA3ODG G,145.530000,DUP-,0.600000,DV,OFF,88.5Hz,YES,Approximate,45.420000,-75.680000,-5:00
4,Canada,Ottawa,ON,VE3FSR B,VE3FSR G,445.860000,DUP-,0.000000,DV,OFF,88.5Hz,YES,Approximate,45.290000,-75.840000,-5:00
4,Canada,PeterBorough,ON,VE3SSF C,VE3SSF G,147.360000,DUP+,0.600000,DV,OFF,88.5Hz,YES,Approximate,44.310000,-78.320000,-5:00
4,Canada,Phelpston,ON,VE3RIG B,VE3RIG G,442.050000,DUP+,5.000000,DV,OFF,88.5Hz,YES,Approximate,-79.840000,44.520000,-5:00
4,Canada,Sault Ste. Marie,ON,VA3SNR C,VA3SNR G,145.210000,DUP-,0.600000,DV,OFF,88.5Hz,YES,Approximate,46.550000,-84.320000,-5:00
4,Canada,Simcoe County,ON,VE3LSR B,VE3LSR G,444.350000,DUP+,5.000000,DV,OFF,88.5Hz,YES,Approximate,44.540000,-79.660000,-5:00
4,Canada,Simcoe County,ON,VE3LSR C,VE3LSR G,145.190000,DUP-,0.600000,DV,OFF,88.5Hz,YES,Approximate,44.540000,-79.660000,-5:00
4,Canada,St Catharines,ON,VE3NUU B,VE3NUU G,443.837500,DUP+,5.000000,DV,OFF,88.5Hz,YES,Approximate,43.240000,-79.210000,-5:00
4,Canada,Stittsville,ON,VA3HOA B,VA3HOA G,445.840000,DUP+,5.000000,DV,OFF,88.5Hz,YES,Approximate,45.280000,-75.910000,-5:00
4,Canada,Sudbury,ON,VA3SRG C,VA3SRG G,147.090000,DUP+,0.600000,DV,OFF,88.5Hz,YES,Approximate,46.500000,-81.000000,-5:00
4,Canada,Thornhill,ON,VE3EBX B,VE3EBX G,444.000000,DUP-,0.000000,DV,OFF,88.5Hz,YES,Approximate,43.800000,-79.550000,-5:00
4,Canada,Timmins,ON,VE3TIR C,VE3TIR G,147.210000,DUP+,0.600000,DV,OFF,88.5Hz,YES,Approximate,48.480000,-81.330000,-5:00
4,Canada,Toronto,ON,VA3DVN B,VA3DVN G,444.737500,DUP+,5.000000,DV,OFF,88.5Hz,YES,Approximate,43.970000,-79.430000,-5:00
4,Canada,Toronto,ON,VA3SLU B,VA3SLU G,442.412500,DUP+,5.000000,DV,OFF,88.5Hz,YES,Approximate,43.970000,-79.430000,-5:00
4,Canada,Toronto,ON,VE3YYZ A,VE3YYZ G,1287.500000,DUP-,12.000000,DV,OFF,88.5Hz,YES,Approximate,43.650000,-79.380000,-5:00
4,Canada,Toronto,ON,VE3YYZ B,VE3YYZ G,442.700000,DUP+,5.000000,DV,OFF,88.5Hz,YES,Approximate,43.650000,-79.380000,-5:00
4,Canada,Toronto,ON,VE3YYZ C,VE3YYZ G,144.940000,DUP+,0.600000,DV,OFF,88.5Hz,YES,Approximate,43.650000,-79.380000,-5:00
4,Canada,Uxbridge,ON,VE3RPT B,VE3RPT G,443.225000,DUP+,5.000000,DV,OFF,88.5Hz,YES,Approximate,44.040000,-79.070000,-5:00
4,Canada,Windsor,ON,VA3WDG B,VA3WDG G,445.825000,DUP-,0.000000,DV,OFF,88.5Hz,YES,Approximate,42.250000,-82.960000,-5:00
4,Canada,Windsor,ON,VE3ZIN C,VE3ZIN G,147.420000,DUP-,0.000000,DV,OFF,88.5Hz,YES,Approximate,42.320000,-82.970000,-5:00
4,Canada,Charlottetown,PE,VE1UHF B,VE1UHF G,443.300000,DUP+,5.000000,DV,OFF,88.5Hz,YES,Approximate,46.210000,-63.220000,-4:00
4,Canada,Charlottetown,PE,VE1UHF C,VE1UHF G,146.715000,DUP-,0.600000,DV,OFF,88.5Hz,YES,Approximate,46.210000,-63.220000,-4:00
4,Canada,Kensington,PE,VY2DSR C,VY2DSR G,147.315000,DUP+,0.600000,DV,OFF,88.5Hz,YES,Approximate,46.430000,-63.630000,-5:00
4,Canada,Alma,QC,VE2RVI B,VE2RVI G,442.650000,DUP+,5.000000,DV,OFF,88.5Hz,YES,Approximate,48.600000,-71.590000,-5:00
4,Canada,Blainville,QC,VE2YUU A,VE2YUU G,1282.500000,DUP-,12.000000,DV,OFF,88.5Hz,YES,Approximate,45.700000,-73.900000,-5:00
4,Canada,Blainville,QC,VE2YUU B,VE2YUU G,442.000000,DUP+,5.000000,DV,OFF,88.5Hz,YES,Approximate,45.700000,-73.900000,-5:00
4,Canada,Blainville,QC,VE2YUU C,VE2YUU G,144.000000,DUP-,0.000000,DV,OFF,88.5Hz,YES,Approximate,45.700000,-73.900000,-5:00
4,Canada,Covey Hill,QC,VA2REX A,VA2REX G,1283.500000,DUP-,12.000000,DV,OFF,88.5Hz,YES,Approximate,45.020000,-73.840000,-5:00
4,Canada,Covey Hill,QC,VA2REX B,VA2REX G,448.325000,DUP-,5.000000,DV,OFF,88.5Hz,YES,Approximate,45.020000,-73.840000,-5:00
4,Canada,Covey Hill,QC,VE2REX C,VE2REX G,145.590000,DUP-,0.600000,DV,OFF,88.5Hz,YES,Approximate,45.020000,-73.790000,-5:00
4,Canada,Drummondville,QC,VA2XNY C,VA2XNY G,145.550000,DUP-,0.600000,DV,OFF,88.5Hz,YES,Approximate,45.890000,-73.520000,-5:00
4,Canada,Gatineau,QC,VE2REG B,VE2REG G,442.650000,DUP+,5.000000,DV,OFF,88.5Hz,YES,Approximate,45.560000,-75.500000,-5:00
4,Canada,Gatineau,QC,VE2REG C,VE2REG G,147.180000,DUP+,0.600000,DV,OFF,88.5Hz,YES,Approximate,45.560000,-75.500000,-5:00
4,Canada,Grand-Mere,QC,VE2SKG A,VE2SKG G,1282.500000,DUP-,12.000000,DV,OFF,88.5Hz,YES,Approximate,46.620000,-72.730000,-5:00
4,Canada,Grand-Mere,QC,VE2SKG B,VE2SKG G,442.000000,DUP+,5.000000,DV,OFF,88.5Hz,YES,Approximate,46.620000,-72.730000,-5:00
4,Canada,Grand-Mere,QC,VE2SKG C,VE2SKG G,144.000000,DUP-,0.000000,DV,OFF,88.5Hz,YES,Approximate,46.620000,-72.730000,-5:00
4,Canada,Lac-Echo,QC,VA2RMP B,VA2RMP G,448.625000,DUP+,5.000000,DV,OFF,88.5Hz,YES,Approximate,45.870000,-74.010000,-5:00
4,Canada,Longueuil,QC,VE2QE  C,VE2QE  G,147.540000,DUP-,0.000000,DV,OFF,88.5Hz,YES,Approximate,45.490000,-73.470000,-5:00
4,Canada,Mont St-Gregoire,QC,VA2RKA A,VA2RKA G,1266.200000,DUP-,20.000000,DV,OFF,88.5Hz,YES,Approximate,45.360000,-73.140000,-5:00
4,Canada,Mont St-Gregoire,QC,VA2RKA B,VA2RKA G,446.150000,DUP-,5.000000,DV,OFF,88.5Hz,YES,Approximate,45.360000,-73.140000,-5:00
4,Canada,Mont-ONeil,QC,VE2RMF A,VE2RMF G,1283.000000,DUP-,20.000000,DV,OFF,88.5Hz,YES,Approximate,46.840000,-71.220000,-5:00
4,Canada,Mont-Orford,QC,VE2RTO A,VE2RTO G,1266.100000,DUP-,20.000000,DV,OFF,88.5Hz,YES,Approximate,45.320000,-72.240000,-5:00
4,Canada,Mont-Orford,QC,VE2RTO B,VE2RTO G,442.000000,DUP+,5.000000,DV,OFF,88.5Hz,YES,Approximate,45.320000,-72.240000,-5:00
4,Canada,Mont-Saint-Grego,QC,VE2RVR B,VE2RVR G,444.200000,DUP+,5.000000,DV,OFF,88.5Hz,YES,Approximate,45.360000,-73.140000,-5:00
4,Canada,Quebec City,QC,VE2RQT B,VE2RQT G,449.925000,DUP-,5.000000,DV,OFF,88.5Hz,YES,Approximate,46.780000,-71.270000,-5:00
4,Canada,Quebec City,QC,VE2RQT C,VE2RQT G,144.950000,DUP-,0.600000,DV,OFF,88.5Hz,YES,Approximate,46.780000,-71.270000,-5:00
4,Canada,Rigaud Mountain,QC,VE2RM  B,VE2RM  G,442.250000,DUP+,5.000000,DV,OFF,88.5Hz,YES,Approximate,45.460000,-74.290000,-5:00
4,Canada,Rimouski,QC,VE2RKI C,VE2RKI G,144.950000,DUP+,0.600000,DV,OFF,88.5Hz,YES,Approximate,48.440000,-68.520000,-5:00
4,Canada,Rougemont,QC,VE2RIO A,VE2RIO G,1266.400000,DUP-,20.000000,DV,OFF,88.5Hz,YES,Approximate,45.480000,-73.070000,-5:00
4,Canada,Rougemont,QC,VE2RIO B,VE2RIO G,449.925000,DUP-,5.000000,DV,OFF,88.5Hz,YES,Approximate,45.480000,-73.070000,-5:00
4,Canada,Rougemont,QC,VE2RIO C,VE2RIO G,145.530000,DUP-,0.600000,DV,OFF,88.5Hz,YES,Approximate,45.480000,-73.070000,-5:00
4,Canada,Saint-Calixte,QC,VA2RKB C,VA2RKB G,145.510000,DUP-,0.600000,DV,OFF,88.5Hz,YES,Approximate,45.980000,-73.920000,-5:00
4,Canada,Sherbrooke,QC,VA2RNJ B,VA2RNJ G,447.275000,DUP-,5.000000,DV,OFF,88.5Hz,YES,Approximate,45.410000,-71.880000,-5:00
4,Canada,Sherbrooke,QC,VE2RQF A,VE2RQF G,1266.500000,DUP-,20.000000,DV,OFF,88.5Hz,YES,Approximate,45.420000,-71.860000,-5:00
4,Canada,Sherbrooke,QC,VE2RQF C,VE2RQF G,147.060000,DUP+,0.600000,DV,OFF,88.5Hz,YES,Approximate,45.420000,-71.860000,-5:00
4,Canada,Sorel,QC,VE2CST A,VE2CST G,1241.000000,DUP+,20.000000,DV,OFF,88.5Hz,YES,Approximate,46.050000,-73.090000,-5:00
4,Canada,Sorel,QC,VE2CST C,VE2CST G,146.985000,DUP-,0.600000,DV,OFF,88.5Hz,YES,Approximate,46.050000,-73.090000,-5:00
4,Canada,Sorel,QC,VE2FCT B,VE2FCT G,446.250000,DUP-,5.000000,DV,OFF,88.5Hz,YES,Approximate,46.050000,-73.110000,-5:00
4,Canada,St-Felix-de-Valo,QC,VA2RVB B,VA2RVB G,442.800000,DUP+,5.000000,DV,OFF,88.5Hz,YES,Approximate,46.160000,-73.440000,-5:00
4,Canada,Trois-Rivieres,QC,VA2LX  B,VA2LX  G,448.675000,DUP-,5.000000,DV,OFF,88.5Hz,YES,Approximate,46.360000,-72.580000,-5:00
4,Canada,Victoriarille,QC,VA2RVO C,VA2RVO G,145.570000,DUP-,0.600000,DV,OFF,88.5Hz,YES,Approximate,46.060000,-71.880000,-5:00
4,Canada,Martensville,SK,VE5MBX B,VE5MBX G,449.500000,DUP-,5.000000,DV,OFF,88.5Hz,YES,Approximate,52.290000,-106.660000,-6:00
4,Canada,Saskatoon,SK,VA5DR  B,VA5DR  G,448.125000,DUP-,5.000000,DV,OFF,88.5Hz,YES,Approximate,52.140000,-106.640000,-6:00
4,Canada,Whitehorse,YT,VY1RDS A,VY1RDS G,1247.000000,DUP+,20.000000,DV,OFF,88.5Hz,YES,Approximate,60.760000,-135.230000,-8:00
4,Canada,Whitehorse,YT,VY1RDS B,VY1RDS G,443.975000,DUP+,5.000000,DV,OFF,88.5Hz,YES,Approximate,60.760000,-135.230000,-8:00
4,Canada,Whitehorse,YT,VY1RDS C,VY1RDS G,146.840000,DUP-,0.600000,DV,OFF,88.5Hz,YES,Approximate,60.760000,-135.230000,-8:00
5,Europe - Eastern,Ahtopol,Bulgaria,LZ0DAF B,LZ0DAF G,438.450000,DUP-,7.600000,DV,OFF,88.5Hz,YES,Approximate,42.120000,27.860000,+2:00
5,Europe - Eastern,Bansko,Bulgaria,LZ0DAT B,LZ0DAT G,438.450000,DUP-,7.600000,DV,OFF,88.5Hz,YES,Approximate,41.810000,23.470000,+2:00
5,Europe - Eastern,Breznik,Bulgaria,LZ0DAM B,LZ0DAM G,438.450000,DUP-,7.600000,DV,OFF,88.5Hz,YES,Approximate,42.740000,22.910000,+2:00
5,Europe - Eastern,Burgas,Bulgaria,LZ0DBS B,LZ0DBS G,439.600000,DUP-,7.600000,DV,OFF,88.5Hz,YES,Approximate,42.510000,27.470000,+2:00
5,Europe - Eastern,Carevo,Bulgaria,LZ0CAR A,LZ0CAR G,1298.100000,DUP-,28.000000,DV,OFF,88.5Hz,YES,Approximate,42.120000,27.850000,+2:00
5,Europe - Eastern,Carevo,Bulgaria,LZ0CAR B,LZ0CAR G,438.550000,DUP+,7.600000,DV,OFF,88.5Hz,YES,Approximate,42.120000,27.850000,+2:00
5,Europe - Eastern,Carevo,Bulgaria,LZ0CAR C,LZ0CAR G,145.587500,DUP+,0.600000,DV,OFF,88.5Hz,YES,Approximate,42.120000,27.850000,+2:00
5,Europe - Eastern,Gotse Delchev,Bulgaria,LZ0DAO B,LZ0DAO G,438.450000,DUP-,7.600000,DV,OFF,88.5Hz,YES,Approximate,41.580000,23.620000,+2:00
5,Europe - Eastern,Haskovo,Bulgaria,LZ0DAX B,LZ0DAX G,438.350000,DUP-,0.000000,DV,OFF,88.5Hz,YES,Approximate,41.910000,25.300000,+1:00
5,Europe - Eastern,Karlovo,Bulgaria,LZ0DVB B,LZ0DVB G,439.250000,DUP-,7.600000,DV,OFF,88.5Hz,YES,Approximate,42.720000,24.920000,+2:00
5,Europe - Eastern,Petrohan prohod,Bulgaria,LZ0DAA B,LZ0DAA G,438.650000,DUP-,7.600000,DV,OFF,88.5Hz,YES,Approximate,43.140000,23.130000,+1:00
5,Europe - Eastern,Plovdiv,Bulgaria,LZ0DAP B,LZ0DAP G,438.500000,DUP-,7.600000,DV,OFF,88.5Hz,YES,Approximate,42.000000,24.730000,+2:00
5,Europe - Eastern,Razgrad,Bulgaria,LZ0DRZ B,LZ0DRZ G,438.450000,DUP-,7.600000,DV,OFF,88.5Hz,YES,Approximate,43.560000,26.540000,+2:00
5,Europe - Eastern,Ruse,Bulgaria,LZ0DAR B,LZ0DAR G,438.550000,DUP-,7.600000,DV,OFF,88.5Hz,YES,Approximate,43.830000,25.960000,+2:00
5,Europe - Eastern,Shumen,Bulgaria,LZ0DAH B,LZ0DAH G,438.400000,DUP-,7.600000,DV,OFF,88.5Hz,YES,Approximate,43.260000,26.930000,+2:00
5,Europe - Eastern,Sofia,Bulgaria,LZ0DAB B,LZ0DAB G,438.550000,DUP-,7.600000,DV,OFF,88.5Hz,YES,Approximate,42.640000,23.250000,+2:00
5,Europe - Eastern,Sofia,Bulgaria,LZ0DSR B,LZ0DSR G,439.150000,DUP-,5.000000,DV,OFF,88.5Hz,YES,Approximate,42.570000,23.290000,+2:00
5,Europe - Eastern,Sofia,Bulgaria,LZ0SUN B,LZ0SUN G,438.425000,DUP-,7.600000,DV,OFF,88.5Hz,YES,Approximate,42.620000,23.350000,+2:00
5,Europe - Eastern,Stara Zagora,Bulgaria,LZ0DAC B,LZ0DAC G,438.450000,DUP-,7.600000,DV,OFF,88.5Hz,YES,Approximate,42.480000,25.670000,+2:00
5,Europe - Eastern,Sunny Beach,Bulgaria,LZ0DAD B,LZ0DAD G,438.500000,DUP-,7.600000,DV,OFF,88.5Hz,YES,Approximate,42.800000,27.660000,+1:00
5,Europe - Eastern,Varna,Bulgaria,LZ0DAV B,LZ0DAV G,438.550000,DUP-,7.600000,DV,OFF,88.5Hz,YES,Approximate,43.240000,27.960000,+1:00
5,Europe - Eastern,Yablanitsa,Bulgaria,LZ0DDR B,LZ0DDR G,435.800000,DUP-,7.600000,DV,OFF,88.5Hz,YES,Approximate,43.040000,24.060000,+2:00
5,Europe - Eastern,Brno,Czech Re,OK0BRQ B,OK0BRQ G,439.450000,DUP-,7.600000,DV,OFF,88.5Hz,YES,Approximate,49.200000,16.530000,+1:00
5,Europe - Eastern,Cesky Krumlov,Czech Re,OK0EB  C,OK0EB  G,145.587500,DUP-,0.600000,DV,OFF,88.5Hz,YES,Approximate,48.870000,14.290000,+1:00
5,Europe - Eastern,Cukrak,Czech Re,OK0NCC B,OK0NCC G,439.550000,DUP+,7.600000,DV,OFF,88.5Hz,YES,Approximate,49.940000,14.360000,+1:00
5,Europe - Eastern,Devet Krizu,Czech Re,OK0DIT B,OK0DIT G,438.637500,DUP-,7.600000,DV,OFF,88.5Hz,YES,Approximate,49.270000,16.310000,+1:00
5,Europe - Eastern,Devet Krizu,Czech Re,OK0DIT C,OK0DIT G,144.925000,DUP-,0.000000,DV,OFF,88.5Hz,YES,Approximate,49.270000,16.310000,+1:00
5,Europe - Eastern,Jested,Czech Re,OK0DJ  C,OK0DJ  G,145.687500,DUP-,0.600000,DV,OFF,88.5Hz,YES,Approximate,50.740000,14.990000,+1:00
5,Europe - Eastern,Krkonose Nationa,Czech Re,OK0BCA B,OK0BCA G,438.900000,DUP-,7.600000,DV,OFF,88.5Hz,YES,Approximate,50.690000,15.710000,+1:00
5,Europe - Eastern,Ostrava,Czech Re,OK0DSK B,OK0DSK G,438.600000,DUP-,7.600000,DV,OFF,88.5Hz,YES,Approximate,49.640000,18.270000,+1:00
5,Europe - Eastern,Plavec,Czech Re,OK0DRB B,OK0DRB G,439.487500,DUP-,7.600000,DV,OFF,88.5Hz,YES,Approximate,50.080000,13.500000,+1:00
5,Europe - Eastern,Plzen,Czech Re,OK0DPL B,OK0DPL G,439.500000,DUP-,7.600000,DV,OFF,88.5Hz,YES,Approximate,49.690000,13.470000,+1:00
5,Europe - Eastern,Praha,Czech Re,OK0HCS B,OK0HCS G,439.450000,DUP-,7.600000,DV,OFF,88.5Hz,YES,Approximate,50.090000,14.390000,+1:00
5,Europe - Eastern,South Moravia,Czech Re,OK0DHD C,OK0DHD G,145.587500,DUP-,0.600000,DV,OFF,88.5Hz,YES,Approximate,49.420000,16.760000,+1:00
5,Europe - Eastern,Svratouch,Czech Re,OK0BAF B,OK0BAF G,438.600000,DUP-,7.600000,DV,OFF,88.5Hz,YES,Approximate,49.740000,16.040000,+1:00
5,Europe - Eastern,Budapest,Hungary,HG5RUD B,HG5RUD G,438.475000,DUP-,7.600000,DV,OFF,88.5Hz,YES,Approximate,47.560000,19.010000,+2:00
5,Europe - Eastern,Erd,Hungary,HG7RUF B,HG7RUF G,438.425000,DUP-,7.600000,DV,OFF,88.5Hz,YES,Approximate,47.420000,18.910000,+1:00
5,Europe - Eastern,Galyateto,Hungary,HG6RUB B,HG6RUB G,438.375000,DUP-,7.600000,DV,OFF,88.5Hz,YES,Approximate,47.920000,19.920000,+2:00
5,Europe - Eastern,Gerecse,Hungary,HG2RUF B,HG2RUF G,438.275000,DUP-,7.600000,DV,OFF,88.5Hz,YES,Approximate,47.680000,18.500000,+2:00
5,Europe - Eastern,Biala Podlaska,Poland,SR8UVB B,SR8UVB G,439.412500,DUP-,7.600000,DV,OFF,88.5Hz,YES,Approximate,52.190000,22.780000,+1:00
5,Europe - Eastern,Bialystok,Poland,SR4UBI B,SR4UBI G,439.425000,DUP-,7.600000,DV,OFF,88.5Hz,YES,Approximate,53.140000,23.140000,+1:00
5,Europe - Eastern,Biskupia Kopa,Poland,SR6UKB B,SR6UKB G,439.262500,DUP-,7.600000,DV,OFF,88.5Hz,YES,Approximate,50.260000,17.430000,+1:00
5,Europe - Eastern,Bogdanowka,Poland,SR9UVP B,SR9UVP G,439.362500,DUP-,7.600000,DV,OFF,88.5Hz,YES,Approximate,49.760000,19.800000,+1:00
5,Europe - Eastern,Brzeg,Poland,SR6AA  B,SR6AA  G,439.462500,DUP+,7.600000,DV,OFF,88.5Hz,YES,Approximate,50.860000,17.470000,+1:00
5,Europe - Eastern,Chotylow,Poland,SR8UVC B,SR8UVC G,439.550000,DUP-,7.600000,DV,OFF,88.5Hz,YES,Approximate,52.010000,23.360000,+1:00
5,Europe - Eastern,Gdynia,Poland,SR2UVG B,SR2UVG G,438.687500,DUP-,7.600000,DV,OFF,88.5Hz,YES,Approximate,54.460000,18.440000,+1:00
5,Europe - Eastern,Hala Miziowa,Poland,SR9UV  C,SR9UV  G,439.937500,DUP-,0.000000,DV,OFF,88.5Hz,YES,Approximate,49.550000,19.320000,+1:00
5,Europe - Eastern,Jablowo,Poland,SR2UVV B,SR2UVV G,439.312500,DUP-,7.600000,DV,OFF,88.5Hz,YES,Approximate,52.920000,17.840000,+1:00
5,Europe - Eastern,Jablowo,Poland,SR2UVV C,SR2UVV G,439.537500,DUP-,0.000000,DV,OFF,88.5Hz,YES,Approximate,52.920000,17.840000,+1:00
5,Europe - Eastern,Jaworzyna Krynic,Poland,SR9UVJ B,SR9UVJ G,439.500000,DUP-,7.600000,DV,OFF,88.5Hz,YES,Approximate,49.420000,20.900000,+1:00
5,Europe - Eastern,Kamiensk,Poland,SR7UVV B,SR7UVV G,439.487500,DUP-,7.600000,DV,OFF,88.5Hz,YES,Approximate,51.210000,19.500000,+1:00
5,Europe - Eastern,Kazimierz Dolny,Poland,SR8UVP A,SR8UVP G,439.270000,DUP-,5.000000,DV,OFF,88.5Hz,YES,Approximate,51.330000,21.970000,+1:00
5,Europe - Eastern,Kazimierz Dolny,Poland,SR8UVP B,SR8UVP G,439.462500,DUP-,7.600000,DV,OFF,88.5Hz,YES,Approximate,51.330000,21.970000,+1:00
5,Europe - Eastern,Kazimierz Dolny,Poland,SR8UVP C,SR8UVP G,145.700000,DUP-,0.600000,DV,OFF,88.5Hz,YES,Approximate,51.330000,21.970000,+1:00
5,Europe - Eastern,Ketrzyn,Poland,SR4KT  B,SR4KT  G,439.275000,DUP-,0.000000,DV,OFF,88.5Hz,YES,Approximate,54.090000,21.380000,+1:00
5,Europe - Eastern,Kielce,Poland,SR7UVK B,SR7UVK G,439.125000,DUP-,7.600000,DV,OFF,88.5Hz,YES,Approximate,50.900000,20.670000,+1:00
5,Europe - Eastern,Korfantowka,Poland,SR2VVV B,SR2VVV G,439.337500,DUP-,7.600000,DV,OFF,88.5Hz,YES,Approximate,53.050000,17.490000,+1:00
5,Europe - Eastern,Kozlowiec,Poland,SR5RK  B,SR5RK  G,438.750000,DUP-,7.600000,DV,OFF,88.5Hz,YES,Approximate,51.360000,20.580000,+1:00
5,Europe - Eastern,Leszno,Poland,SR3UVL B,SR3UVL G,439.237500,DUP-,7.600000,DV,OFF,88.5Hz,YES,Approximate,51.820000,16.660000,+1:00
5,Europe - Eastern,Lichwin,Poland,SR9VVO A,SR9VVO G,1297.000000,DUP-,30.000000,DV,OFF,88.5Hz,YES,Approximate,49.900000,20.930000,+1:00
5,Europe - Eastern,Lichwin,Poland,SR9VVO B,SR9VVO G,439.437500,DUP-,7.600000,DV,OFF,88.5Hz,YES,Approximate,49.900000,20.930000,+1:00
5,Europe - Eastern,Lichwin,Poland,SR9VVO C,SR9VVO G,145.787500,DUP-,0.600000,DV,OFF,88.5Hz,YES,Approximate,49.900000,20.930000,+1:00
5,Europe - Eastern,Lodz,Poland,SR7LDZ B,SR7LDZ G,438.350000,DUP-,7.600000,DV,OFF,88.5Hz,YES,Approximate,51.790000,19.540000,+1:00
5,Europe - Eastern,Lodz,Poland,SR7ULM B,SR7ULM G,439.500000,DUP-,7.600000,DV,OFF,88.5Hz,YES,Approximate,51.750000,19.450000,+1:00
5,Europe - Eastern,Lodz,Poland,SR7UVL B,SR7UVL G,439.450000,DUP-,7.600000,DV,OFF,88.5Hz,YES,Approximate,51.790000,19.540000,+1:00
5,Europe - Eastern,Lublin,Poland,SR8UVL B,SR8UVL G,438.825000,DUP-,7.600000,DV,OFF,88.5Hz,YES,Approximate,51.230000,22.630000,+1:00
5,Europe - Eastern,Milki/Mazury,Poland,SR4UVM B,SR4UVM G,439.487500,DUP-,7.600000,DV,OFF,88.5Hz,YES,Approximate,53.940000,21.850000,+1:00
5,Europe - Eastern,Moszna-Parcela,Poland,SR5WC  B,SR5WC  G,438.600000,DUP-,7.600000,DV,OFF,88.5Hz,YES,Approximate,52.180000,20.750000,+1:00
5,Europe - Eastern,Mragowo,Poland,SR4MR  A,SR4MR  G,439.270000,DUP-,5.000000,DV,OFF,88.5Hz,YES,Approximate,53.870000,21.300000,+1:00
5,Europe - Eastern,Mragowo,Poland,SR4MR  B,SR4MR  G,439.150000,DUP-,7.600000,DV,OFF,88.5Hz,YES,Approximate,53.870000,21.300000,+1:00
5,Europe - Eastern,Mragowo,Poland,SR4MR  C,SR4MR  G,145.662500,DUP-,0.600000,DV,OFF,88.5Hz,YES,Approximate,53.870000,21.300000,+1:00
5,Europe - Eastern,Niegowonice,Poland,SR9UVU B,SR9UVU G,439.162500,DUP-,7.600000,DV,OFF,88.5Hz,YES,Approximate,50.390000,19.420000,+1:00
5,Europe - Eastern,Olawa,Poland,SR6UVY B,SR6UVY G,439.212500,DUP-,7.600000,DV,OFF,88.5Hz,YES,Approximate,50.950000,17.280000,+1:00
5,Europe - Eastern,Olsztyn,Poland,SR4UVN B,SR4UVN G,438.950000,DUP-,7.600000,DV,OFF,88.5Hz,YES,Approximate,53.780000,20.500000,+1:00
5,Europe - Eastern,Radom,Poland,SR5UVR B,SR5UVR G,438.525000,DUP-,7.600000,DV,OFF,88.5Hz,YES,Approximate,51.410000,21.160000,+1:00
5,Europe - Eastern,Skierniewice,Poland,SR7USC C,SR7USC G,439.937500,DUP-,0.000000,DV,OFF,88.5Hz,YES,Approximate,51.980000,20.150000,+1:00
5,Europe - Eastern,Swinoujscie,Poland,SR1UVH A,SR1UVH G,433.437500,DUP-,0.000000,DV,OFF,88.5Hz,YES,Approximate,53.910000,14.240000,+1:00
5,Europe - Eastern,Swinoujscie,Poland,SR1UVH B,SR1UVH G,439.025000,DUP-,7.600000,DV,OFF,88.5Hz,YES,Approximate,53.910000,14.240000,+1:00
5,Europe - Eastern,Swinoujscie,Poland,SR1UVH C,SR1UVH G,145.587500,DUP-,0.600000,DV,OFF,88.5Hz,YES,Approximate,53.910000,14.240000,+1:00
5,Europe - Eastern,Warsaw,Poland,SR5UVA B,SR5UVA G,439.437500,DUP-,7.600000,DV,OFF,88.5Hz,YES,Approximate,52.240000,21.000000,+1:00
5,Europe - Eastern,Wielka Sowa,Poland,SR6UWS B,SR6UWS G,438.987500,DUP-,7.600000,DV,OFF,88.5Hz,YES,Approximate,50.690000,16.490000,+1:00
5,Europe - Eastern,Wloclawek,Poland,SR2UVO B,SR2UVO G,438.962500,DUP-,7.600000,DV,OFF,88.5Hz,YES,Approximate,52.650000,19.060000,+1:00
5,Europe - Eastern,Wlodawa,Poland,SR8UWD A,SR8UWD G,439.270000,DUP-,5.000000,DV,OFF,88.5Hz,YES,Approximate,51.560000,23.560000,+1:00
5,Europe - Eastern,Wroclaw,Poland,SR6UVW C,SR6UVW G,439.462500,DUP+,7.600000,DV,OFF,88.5Hz,YES,Approximate,51.120000,17.070000,+1:00
5,Europe - Eastern,Zakopane,Poland,SR9UVZ B,SR9UVZ G,439.200000,DUP-,7.600000,DV,OFF,88.5Hz,YES,Approximate,49.310000,19.940000,+1:00
5,Europe - Eastern,Zawiercie,Poland,SR9SZ  A,SR9SZ  G,433.412500,DUP-,0.000000,DV,OFF,88.5Hz,YES,Approximate,50.500000,19.490000,+1:00
5,Europe - Eastern,Zawiercie,Poland,SR9SZ  B,SR9SZ  G,439.150000,DUP-,7.600000,DV,OFF,88.5Hz,YES,Approximate,50.500000,19.490000,+1:00
5,Europe - Eastern,Zawiercie,Poland,SR9SZ  C,SR9SZ  G,145.375000,DUP-,0.000000,DV,OFF,88.5Hz,YES,Approximate,50.500000,19.490000,+1:00
5,Europe - Eastern,Zielona Gora,Poland,SR3ZX  B,SR3ZX  G,439.350000,DUP-,7.600000,DV,OFF,88.5Hz,YES,Approximate,51.940000,15.530000,+1:00
5,Europe - Eastern,Brasov,Romania,YO6U   B,YO6U   G,438.900000,DUP-,7.600000,DV,OFF,88.5Hz,YES,Approximate,45.660000,25.600000,+2:00
5,Europe - Eastern,Brasov,Romania,YO6KAF A,YO6KAF G,434.220000,DUP+,5.000000,DV,OFF,88.5Hz,YES,Approximate,45.680000,25.630000,+1:00
5,Europe - Eastern,Brasov,Romania,YO6KAF B,YO6KAF G,438.625000,DUP-,7.600000,DV,OFF,88.5Hz,YES,Approximate,45.680000,25.630000,+1:00
5,Europe - Eastern,Brasov,Romania,YO6KAF C,YO6KAF G,145.575000,DUP-,0.600000,DV,OFF,88.5Hz,YES,Approximate,45.680000,25.630000,+1:00
5,Europe - Eastern,Timisoara,Romania,YO2Q   B,YO2Q   G,438.500000,DUP-,7.600000,DV,OFF,88.5Hz,YES,Approximate,45.770000,21.240000,+1:00
5,Europe - Eastern,Bratislava,Slovakia,OM0ODB B,OM0ODB G,438.325000,DUP+,7.600000,DV,OFF,88.5Hz,YES,Approximate,48.000000,17.000000,+1:00
6,Europe - Norther,Aalborg,Denmark,OZ3DST B,OZ3DST G,434.962500,DUP-,2.000000,DV,OFF,88.5Hz,YES,Approximate,57.040000,9.920000,+1:00
6,Europe - Norther,Alborg,Denmark,OZ3DSR B,OZ3DSR G,434.475000,DUP-,0.000000,DV,OFF,88.5Hz,YES,Approximate,57.030000,10.010000,+1:00
6,Europe - Norther,Alborg,Denmark,OZ3DSR C,OZ3DSR G,144.837500,DUP-,0.600000,DV,OFF,88.5Hz,YES,Approximate,57.030000,10.010000,+1:00
6,Europe - Norther,Broenderslev,Denmark,OZ2DST B,OZ2DST G,434.587500,DUP-,2.000000,DV,OFF,88.5Hz,YES,Approximate,57.280000,9.960000,+1:00
6,Europe - Norther,Brokbjerg,Denmark,OZ7DSD B,OZ7DSD G,434.450000,DUP-,0.000000,DV,OFF,88.5Hz,YES,Approximate,55.970000,9.810000,+1:00
6,Europe - Norther,Copenhagen,Denmark,OZ2REA B,OZ2REA G,434.937500,DUP-,2.000000,DV,OFF,88.5Hz,YES,Approximate,55.680000,12.530000,+1:00
6,Europe - Norther,Copenhagen,Denmark,OZ2REA C,OZ2REA G,145.712500,DUP-,0.600000,DV,OFF,88.5Hz,YES,Approximate,55.680000,12.530000,+1:00
6,Europe - Norther,Esbjerg,Denmark,OZ4RED B,OZ4RED G,434.962500,DUP-,2.000000,DV,OFF,88.5Hz,YES,Approximate,55.510000,8.460000,+1:00
6,Europe - Norther,Esbjerg,Denmark,OZ4RED C,OZ4RED G,145.762500,DUP-,0.600000,DV,OFF,88.5Hz,YES,Approximate,55.510000,8.460000,+1:00
6,Europe - Norther,Frederikshavn,Denmark,OZ0DST B,OZ0DST G,434.575000,DUP-,2.000000,DV,OFF,88.5Hz,YES,Approximate,57.470000,10.460000,+1:00
6,Europe - Norther,Herning,Denmark,OZ1REH B,OZ1REH G,434.537500,DUP-,2.000000,DV,OFF,88.5Hz,YES,Approximate,56.110000,8.990000,+1:00
6,Europe - Norther,Hurup Thy,Denmark,OZ9RET B,OZ9RET G,434.987500,DUP-,2.000000,DV,OFF,88.5Hz,YES,Approximate,56.760000,8.390000,+1:00
6,Europe - Norther,Hurup Thy,Denmark,OZ9RET C,OZ9RET G,145.662500,DUP-,0.600000,DV,OFF,88.5Hz,YES,Approximate,56.760000,8.390000,+1:00
6,Europe - Norther,Knivsbjerg,Denmark,OZ3REY B,OZ3REY G,434.600000,DUP-,2.000000,DV,OFF,88.5Hz,YES,Approximate,55.150000,9.440000,+1:00
6,Europe - Norther,Logstor,Denmark,OZ7REL B,OZ7REL G,434.537500,DUP-,2.000000,DV,OFF,88.5Hz,YES,Approximate,56.960000,9.270000,+1:00
6,Europe - Norther,Naestved,Denmark,OZ0REA B,OZ0REA G,434.562500,DUP-,2.000000,DV,OFF,88.5Hz,YES,Approximate,55.230000,11.780000,+1:00
6,Europe - Norther,Odense,Denmark,OZ2REE B,OZ2REE G,434.537500,DUP-,0.200000,DV,OFF,88.5Hz,YES,Approximate,55.380000,10.510000,+1:00
6,Europe - Norther,Osterlars,Denmark,OZ9AFZ A,OZ9AFZ G,1298.550000,DUP-,28.000000,DV,OFF,88.5Hz,YES,Approximate,55.170000,14.970000,+1:00
6,Europe - Norther,Osterlars,Denmark,OZ9AFZ B,OZ9AFZ G,433.437500,DUP-,0.000000,DV,OFF,88.5Hz,YES,Approximate,55.170000,14.970000,+1:00
6,Europe - Norther,Osterlars,Denmark,OZ9AFZ C,OZ9AFZ G,145.687500,DUP+,0.600000,DV,OFF,88.5Hz,YES,Approximate,55.170000,14.970000,+1:00
6,Europe - Norther,Randers,Denmark,OZ9REZ B,OZ9REZ G,434.562500,DUP-,2.000000,DV,OFF,88.5Hz,YES,Approximate,56.470000,10.020000,+1:00
6,Europe - Norther,Slagelse,Denmark,OZ0REF B,OZ0REF G,434.575000,DUP-,2.000000,DV,OFF,88.5Hz,YES,Approximate,55.380000,11.340000,+1:00
6,Europe - Norther,Stoevring,Denmark,OZ4REN B,OZ4REN G,434.525000,DUP-,2.000000,DV,OFF,88.5Hz,YES,Approximate,56.890000,9.820000,+1:00
6,Europe - Norther,Copenhagen F,Hovedsta,OZ2REM B,OZ2REM G,434.550000,DUP-,2.000000,DV,OFF,88.5Hz,YES,Approximate,55.680000,12.510000,+1:00
6,Europe - Norther,Reykjavik,Iceland,TF3RPI B,TF3RPI G,439.950000,DUP-,5.000000,DV,OFF,88.5Hz,YES,Approximate,63.980000,-21.630000,0:00
6,Europe - Norther,Bergen,Norway,LD5BG  A,LD5BG  G,1297.225000,DUP-,30.000000,DV,OFF,88.5Hz,YES,Approximate,60.430000,5.370000,+1:00
6,Europe - Norther,Bergen,Norway,LD5BG  B,LD5BG  G,433.637500,DUP-,0.000000,DV,OFF,88.5Hz,YES,Approximate,60.430000,5.370000,+1:00
6,Europe - Norther,Bergen,Norway,LD5BG  C,LD5BG  G,145.637500,DUP-,0.600000,DV,OFF,88.5Hz,YES,Approximate,60.430000,5.370000,+1:00
6,Europe - Norther,Bronnoysund,Norway,LD8BS  B,LD8BS  G,433.637500,DUP-,0.000000,DV,OFF,88.5Hz,YES,Approximate,65.500000,12.250000,+1:00
6,Europe - Norther,Eidsvoll,Norway,LD2EM  C,LD2EM  G,145.575000,DUP-,0.600000,DV,OFF,88.5Hz,YES,Approximate,60.380000,11.160000,+1:00
6,Europe - Norther,Forbordsfjellet,Norway,LD7FF  A,LD7FF  G,434.220000,DUP+,5.000000,DV,OFF,88.5Hz,YES,Approximate,63.530000,10.890000,+1:00
6,Europe - Norther,Forbordsfjellet,Norway,LD7FF  B,LD7FF  G,434.675000,DUP-,2.000000,DV,OFF,88.5Hz,YES,Approximate,63.530000,10.890000,+1:00
6,Europe - Norther,Forbordsfjellet,Norway,LD7FF  C,LD7FF  G,145.637500,DUP-,0.600000,DV,OFF,88.5Hz,YES,Approximate,63.530000,10.890000,+1:00
6,Europe - Norther,Grimstad,Norway,LD4FH  B,LD4FH  G,434.700000,DUP-,2.000000,DV,OFF,88.5Hz,YES,Approximate,58.390000,8.590000,+1:00
6,Europe - Norther,Kongsvinger,Norway,LD2KR  B,LD2KR  G,434.562500,DUP-,2.000000,DV,OFF,88.5Hz,YES,Approximate,60.200000,12.000000,+1:00
6,Europe - Norther,Leknes,Norway,LD8LK  B,LD8LK  G,433.637500,DUP-,0.000000,DV,OFF,88.5Hz,YES,Approximate,68.150000,13.630000,+1:00
6,Europe - Norther,Lund,Norway,LD4LA  A,LD4LA  G,144.875000,DUP-,0.000000,DV,OFF,88.5Hz,YES,Approximate,58.530000,6.550000,+1:00
6,Europe - Norther,Lund,Norway,LD4LA  B,LD4LA  G,434.862500,DUP-,2.000000,DV,OFF,88.5Hz,YES,Approximate,58.530000,6.550000,+1:00
6,Europe - Norther,Lund,Norway,LD4LA  C,LD4LA  G,145.587500,DUP-,0.600000,DV,OFF,88.5Hz,YES,Approximate,58.530000,6.550000,+1:00
6,Europe - Norther,Mo i Rana,Norway,LD8MR  B,LD8MR  G,434.850000,DUP-,2.000000,DV,OFF,88.5Hz,YES,Approximate,66.320000,14.150000,+1:00
6,Europe - Norther,Mosjoen,Norway,LD8MK  B,LD8MK  G,434.825000,DUP-,2.000000,DV,OFF,88.5Hz,YES,Approximate,65.880000,13.200000,+1:00
6,Europe - Norther,Narvik,Norway,LD8NA  B,LD8NA  G,434.775000,DUP-,2.000000,DV,OFF,88.5Hz,YES,Approximate,68.420000,17.400000,+1:00
6,Europe - Norther,Nesna,Norway,LD8NN  B,LD8NN  G,433.275000,DUP-,0.000000,DV,OFF,88.5Hz,YES,Approximate,66.220000,13.060000,+1:00
6,Europe - Norther,Ornes,Norway,LD8MM  B,LD8MM  G,433.687500,DUP-,0.000000,DV,OFF,88.5Hz,YES,Approximate,66.880000,13.720000,+1:00
6,Europe - Norther,Orre,Norway,LD4LK  C,LD4LK  G,145.687500,DUP-,0.600000,DV,OFF,88.5Hz,YES,Approximate,58.200000,6.940000,+1:00
6,Europe - Norther,Oslo,Norway,LD1OT  B,LD1OT  G,434.575000,DUP-,2.000000,DV,OFF,88.5Hz,YES,Approximate,59.990000,10.670000,+1:00
6,Europe - Norther,Risoer,Norway,LD4RH  B,LD4RH  G,434.537500,DUP-,0.000000,DV,OFF,88.5Hz,YES,Approximate,58.770000,9.110000,+1:00
6,Europe - Norther,Sandnessjoen,Norway,LD8SA  B,LD8SA  G,434.800000,DUP-,2.000000,DV,OFF,88.5Hz,YES,Approximate,66.010000,12.620000,+1:00
6,Europe - Norther,Stavanger,Norway,LD4GA  C,LD4GA  G,145.587500,DUP-,0.600000,DV,OFF,88.5Hz,YES,Approximate,58.630000,6.300000,+1:00
6,Europe - Norther,Stavanger,Norway,LD4VF  C,LD4VF  G,145.637500,DUP-,0.600000,DV,OFF,88.5Hz,YES,Approximate,58.930000,5.800000,+1:00
6,Europe - Norther,Vordingborg,Sjaellan,OZ0REC B,OZ0REC G,434.587500,DUP-,2.000000,DV,OFF,88.5Hz,YES,Approximate,55.030000,11.900000,+1:00
7,Europe - Souther,Brac - Vidova Go,Croatia,9A0DST B,9A0DST G,438.375000,DUP-,7.600000,DV,OFF,88.5Hz,YES,Approximate,43.280000,16.630000,+1:00
7,Europe - Souther,Celavac,Croatia,9A0DZD B,9A0DZD G,439.275000,DUP-,7.600000,DV,OFF,88.5Hz,YES,Approximate,44.260000,15.790000,+1:00
7,Europe - Souther,Kapovac na Papuk,Croatia,9A0DOS B,9A0DOS G,438.275000,DUP-,7.600000,DV,OFF,88.5Hz,YES,Approximate,45.490000,17.850000,+1:00
7,Europe - Souther,Rijeka,Croatia,9A0DRI B,9A0DRI G,438.200000,DUP-,7.600000,DV,OFF,88.5Hz,YES,Approximate,45.290000,14.210000,+1:00
7,Europe - Souther,Zagreb,Croatia,9A0DZG B,9A0DZG G,438.225000,DUP-,7.600000,DV,OFF,88.5Hz,YES,Approximate,45.810000,15.950000,+1:00
7,Europe - Souther,Athens,Greece,SV1P   A,SV1P   G,1270.025000,DUP+,28.000000,DV,OFF,88.5Hz,YES,Approximate,37.960000,23.820000,+2:00
7,Europe - Souther,Athens,Greece,SV1P   B,SV1P   G,439.425000,DUP-,7.600000,DV,OFF,88.5Hz,YES,Approximate,37.960000,23.820000,+2:00
7,Europe - Souther,Athens,Greece,SW1I   A,SW1I   G,1270.100000,DUP+,28.000000,DV,OFF,88.5Hz,YES,Approximate,37.950000,23.820000,+1:00
7,Europe - Souther,Athens,Greece,SW1I   B,SW1I   G,438.737500,DUP-,7.600000,DV,OFF,88.5Hz,YES,Approximate,37.950000,23.820000,+1:00
7,Europe - Souther,Florina - Vigla,Greece,SV2Q   B,SV2Q   G,439.312500,DUP-,7.600000,DV,OFF,88.5Hz,YES,Approximate,40.770000,21.260000,+1:00
7,Europe - Souther,Thessaloniki,Greece,SV2K   B,SV2K   G,438.837500,DUP-,7.600000,DV,OFF,88.5Hz,YES,Approximate,40.650000,22.970000,+2:00
7,Europe - Souther,Thessaloniki,Greece,SV2F   B,SV2F   G,439.425000,DUP-,7.600000,DV,OFF,88.5Hz,YES,Approximate,40.520000,23.230000,+2:00
7,Europe - Souther,Tripoli,Greece,SV3G   B,SV3G   G,439.400000,DUP-,7.600000,DV,OFF,88.5Hz,YES,Approximate,37.970000,23.450000,+2:00
7,Europe - Souther,Volos,Greece,SV4J   B,SV4J   G,438.425000,DUP-,7.600000,DV,OFF,88.5Hz,YES,Approximate,39.410000,23.040000,+2:00
7,Europe - Souther,Zante Island,Greece,SV8S   B,SV8S   G,439.425000,DUP-,7.600000,DV,OFF,88.5Hz,YES,Approximate,37.800000,20.790000,+2:00
7,Europe - Souther,Montenegro,Monteneg,4O0DPG B,4O0DPG G,438.800000,DUP-,7.600000,DV,OFF,88.5Hz,YES,Approximate,42.450000,19.250000,+1:00
7,Europe - Souther,Amarante,Portugal,CQ0DAM A,CQ0DAM G,1297.000000,DUP-,30.000000,DV,OFF,88.5Hz,YES,Approximate,41.270000,-8.090000,+1:00
7,Europe - Souther,Amarante,Portugal,CQ0DAM B,CQ0DAM G,438.200000,DUP-,7.600000,DV,OFF,88.5Hz,YES,Approximate,41.270000,-8.090000,+1:00
7,Europe - Souther,Amarante,Portugal,CQ0DAM C,CQ0DAM G,145.787500,DUP-,0.600000,DV,OFF,88.5Hz,YES,Approximate,41.270000,-8.090000,+1:00
7,Europe - Souther,Angra do Heroism,Portugal,CQ1DUR B,CQ1DUR G,438.337500,DUP-,7.600000,DV,OFF,88.5Hz,YES,Approximate,38.670000,-27.220000,0:00
7,Europe - Souther,Arrabida (Setuba,Portugal,CQ0DSA B,CQ0DSA G,438.475000,DUP-,7.600000,DV,OFF,88.5Hz,YES,Approximate,38.500000,-8.960000,+1:00
7,Europe - Souther,Cascais,Portugal,CQ0DCS B,CQ0DCS G,438.400000,DUP-,7.600000,DV,OFF,88.5Hz,YES,Approximate,38.740000,-9.400000,+1:00
7,Europe - Souther,Chaves (Leiranco,Portugal,CQ0DCH B,CQ0DCH G,438.512500,DUP-,7.600000,DV,OFF,88.5Hz,YES,Approximate,41.740000,-7.640000,+1:00
7,Europe - Souther,Gondomar,Portugal,CQ0DGM A,CQ0DGM G,434.220000,DUP+,5.000000,DV,OFF,88.5Hz,YES,Approximate,41.150000,-8.530000,0:00
7,Europe - Souther,Gondomar,Portugal,CQ0DGM B,CQ0DGM G,438.250000,DUP-,7.600000,DV,OFF,88.5Hz,YES,Approximate,41.150000,-8.530000,0:00
7,Europe - Souther,Gondomar,Portugal,CQ0DGM C,CQ0DGM G,145.587500,DUP-,0.600000,DV,OFF,88.5Hz,YES,Approximate,41.150000,-8.530000,0:00
7,Europe - Souther,Leiria (Candeeir,Portugal,CQ0DLR B,CQ0DLR G,438.425000,DUP-,7.600000,DV,OFF,88.5Hz,YES,Approximate,39.550000,-8.860000,+1:00
7,Europe - Souther,Portalegre (S. M,Portugal,CQ0DSM B,CQ0DSM G,438.500000,DUP-,7.600000,DV,OFF,88.5Hz,YES,Approximate,39.320000,-7.360000,+1:00
7,Europe - Souther,St.Cruz-Torres V,Portugal,CQ0DKE C,CQ0DKE G,145.587500,DUP-,0.600000,DV,OFF,88.5Hz,YES,Approximate,39.120000,-9.370000,0:00
7,Europe - Souther,Torre- Serra da,Portugal,CQ0DSE C,CQ0DSE G,145.550000,DUP-,0.600000,DV,OFF,88.5Hz,YES,Approximate,40.330000,-7.620000,+1:00
7,Europe - Souther,Torres Vedras,Portugal,CQ0DTV B,CQ0DTV G,438.675000,DUP-,7.600000,DV,OFF,88.5Hz,YES,Approximate,39.090000,-9.270000,+1:00
7,Europe - Souther,V.R.Santo Antoni,Portugal,CQ0DVA B,CQ0DVA G,438.450000,DUP-,7.600000,DV,OFF,88.5Hz,YES,Approximate,37.190000,-7.410000,0:00
7,Europe - Souther,San Marino,San Mari,T79DV  B,T79DV  G,431.487500,DUP+,1.600000,DV,OFF,88.5Hz,YES,Approximate,43.940000,12.450000,+1:00
7,Europe - Souther,Ljubljana,Slovenia,S55DLJ B,S55DLJ G,438.200000,DUP-,7.600000,DV,OFF,88.5Hz,YES,Approximate,46.030000,14.660000,+1:00
7,Europe - Souther,Maribor,Slovenia,S55DMX B,S55DMX G,439.200000,DUP-,7.600000,DV,OFF,88.5Hz,YES,Approximate,46.520000,15.600000,+1:00
7,Europe - Souther,Trbovlje,Slovenia,S55DZA B,S55DZA G,438.300000,DUP-,7.600000,DV,OFF,88.5Hz,YES,Approximate,46.160000,15.060000,+1:00
7,Europe - Souther,A Estrada,Spain,ED1ZAT B,ED1ZAT G,438.325000,DUP-,7.600000,DV,OFF,88.5Hz,YES,Approximate,42.710000,-8.340000,+4:30
7,Europe - Souther,Algaida,Spain,ED6ZAB B,ED6ZAB G,438.450000,DUP-,7.600000,DV,OFF,88.5Hz,YES,Approximate,39.520000,2.930000,+1:00
7,Europe - Souther,Barcelona,Spain,ED3YAK C,ED3YAK G,145.650000,DUP-,0.600000,DV,OFF,88.5Hz,YES,Approximate,41.370000,2.170000,+1:00
7,Europe - Souther,Benidorm,Spain,ED5ZAG B,ED5ZAG G,438.275000,DUP-,7.600000,DV,OFF,88.5Hz,YES,Approximate,38.730000,-0.070000,+1:00
7,Europe - Souther,Bilbao,Spain,ED2ZAC B,ED2ZAC G,438.200000,DUP-,7.600000,DV,OFF,88.5Hz,YES,Approximate,43.280000,-2.940000,+1:00
7,Europe - Souther,Castellar del Va,Spain,EA3RCC B,EA3RCC G,438.475000,DUP-,7.600000,DV,OFF,88.5Hz,YES,Approximate,41.640000,2.090000,+1:00
7,Europe - Souther,Castellon,Spain,EA5RKD B,EA5RKD G,438.525000,DUP-,7.600000,DV,OFF,88.5Hz,YES,Approximate,40.090000,0.040000,+1:00
7,Europe - Souther,Cordoba,Spain,ED7ZAD B,ED7ZAD G,438.525000,DUP-,7.600000,DV,OFF,88.5Hz,YES,Approximate,37.890000,-4.770000,+1:00
7,Europe - Souther,Cuenca,Spain,ED4ZAD B,ED4ZAD G,438.375000,DUP-,7.600000,DV,OFF,88.5Hz,YES,Approximate,40.090000,-2.120000,+1:00
7,Europe - Souther,Denia,Spain,ED5ZAC A,ED5ZAC G,1298.500000,DUP-,28.000000,DV,OFF,88.5Hz,YES,Approximate,38.850000,0.110000,+1:00
7,Europe - Souther,Denia,Spain,ED5ZAC B,ED5ZAC G,438.300000,DUP-,7.600000,DV,OFF,88.5Hz,YES,Approximate,38.850000,0.110000,+1:00
7,Europe - Souther,Denia,Spain,ED5ZAC C,ED5ZAC G,145.687500,DUP-,0.600000,DV,OFF,88.5Hz,YES,Approximate,38.850000,0.110000,+1:00
7,Europe - Souther,Figueres,Spain,EA3URE A,EA3URE G,1298.575000,DUP-,28.000000,DV,OFF,88.5Hz,YES,Approximate,42.280000,2.960000,+1:00
7,Europe - Souther,Ganeta,Spain,ED2YAO B,ED2YAO G,144.850000,DUP-,0.000000,DV,OFF,88.5Hz,YES,Approximate,43.220000,-2.940000,+1:00
7,Europe - Souther,Gibalbin,Spain,ED7ZAJ B,ED7ZAJ G,438.300000,DUP-,7.600000,DV,OFF,88.5Hz,YES,Approximate,36.500000,-5.560000,+1:00
7,Europe - Souther,Gijon,Spain,ED1ZAE C,ED1ZAE G,145.587500,DUP-,0.600000,DV,OFF,88.5Hz,YES,Approximate,43.470000,-5.670000,+1:00
7,Europe - Souther,Granada,Spain,ED7ZAE B,ED7ZAE G,438.300000,DUP-,7.600000,DV,OFF,88.5Hz,YES,Approximate,37.160000,-3.590000,+1:00
7,Europe - Souther,Irun,Spain,ED2ZAB C,ED2ZAB G,145.775000,DUP-,0.600000,DV,OFF,88.5Hz,YES,Approximate,43.330000,-1.760000,+1:00
7,Europe - Souther,Las Palmas de G.,Spain,ED8ZAC C,ED8ZAC G,145.700000,DUP-,0.600000,DV,OFF,88.5Hz,YES,Approximate,28.130000,-15.430000,0:00
7,Europe - Souther,Madrid,Spain,ED4YAG B,ED4YAG G,438.350000,DUP-,7.600000,DV,OFF,88.5Hz,YES,Approximate,40.400000,-3.670000,+1:00
7,Europe - Souther,Madrid,Spain,ED4ZAH B,ED4ZAH G,438.350000,DUP-,7.600000,DV,OFF,88.5Hz,YES,Approximate,40.720000,4.140000,0:00
7,Europe - Souther,Malaga,Spain,ED7ZAC B,ED7ZAC G,438.450000,DUP-,7.600000,DV,OFF,88.5Hz,YES,Approximate,36.610000,-4.590000,+1:00
7,Europe - Souther,Murcia - Carrasc,Spain,ED5ZAE B,ED5ZAE G,438.200000,DUP-,7.600000,DV,OFF,88.5Hz,YES,Approximate,37.850000,-1.270000,+1:00
7,Europe - Souther,Murcia - Carrasc,Spain,ED5ZAE C,ED5ZAE G,145.575000,DUP-,0.600000,DV,OFF,88.5Hz,YES,Approximate,37.850000,-1.270000,+1:00
7,Europe - Souther,Orense,Spain,ED1YBL C,ED1YBL G,145.637500,DUP-,0.600000,DV,OFF,88.5Hz,YES,Approximate,42.350000,-7.610000,0:00
7,Europe - Souther,Ourense,Spain,ED1YBK B,ED1YBK G,438.250000,DUP-,7.600000,DV,OFF,88.5Hz,YES,Approximate,42.360000,-7.820000,+1:00
7,Europe - Souther,Pico Untzueta,Spain,ED2YAA B,ED2YAA G,439.975000,DUP-,0.000000,DV,OFF,88.5Hz,YES,Approximate,43.140000,-2.900000,+1:00
7,Europe - Souther,Salamanca,Spain,ED1ZAB B,ED1ZAB G,438.300000,DUP-,7.600000,DV,OFF,88.5Hz,YES,Approximate,40.950000,-5.660000,+1:00
7,Europe - Souther,SFernando(Cadiz),Spain,ED7YAU B,ED7YAU G,438.300000,DUP-,7.600000,DV,OFF,88.5Hz,YES,Approximate,36.490000,5.570000,+1:00
7,Europe - Souther,Valencia,Spain,ED5ZAB B,ED5ZAB G,438.200000,DUP-,7.600000,DV,OFF,88.5Hz,YES,Approximate,39.490000,-0.330000,+1:00
7,Europe - Souther,Verin - Ourense,Spain,ED1ZAJ B,ED1ZAJ G,438.325000,DUP-,7.600000,DV,OFF,88.5Hz,YES,Approximate,41.910000,-7.460000,+1:00
7,Europe - Souther,Zaragoza,Spain,ED2ZAA B,ED2ZAA G,438.350000,DUP-,7.600000,DV,OFF,88.5Hz,YES,Approximate,41.640000,-0.890000,+1:00
8,Europe - Western,Frastanz,Austria,OE9XMV C,OE9XMV G,145.700000,DUP-,0.600000,DV,OFF,88.5Hz,YES,Approximate,47.220000,9.630000,+2:00
8,Europe - Western,Gmunden,Austria,OE5XGL B,OE5XGL G,438.800000,DUP-,7.600000,DV,OFF,88.5Hz,YES,Approximate,47.900000,13.830000,+1:00
8,Europe - Western,Keutschach,Austria,OE8XKK C,OE8XKK G,145.612500,DUP-,0.600000,DV,OFF,88.5Hz,YES,Approximate,46.610000,14.150000,+1:00
8,Europe - Western,Krippenstein,Austria,OE5XKL B,OE5XKL G,438.500000,DUP-,7.600000,DV,OFF,88.5Hz,YES,Approximate,47.530000,13.700000,+1:00
8,Europe - Western,Lachtal/Judenbur,Austria,OE6XDG B,OE6XDG G,438.675000,DUP-,7.600000,DV,OFF,88.5Hz,YES,Approximate,47.270000,14.380000,+1:00
8,Europe - Western,Lienz,Austria,OE7XLI B,OE7XLI G,438.525000,DUP-,7.600000,DV,OFF,88.5Hz,YES,Approximate,46.830000,12.700000,+1:00
8,Europe - Western,Linz,Austria,OE5XOL B,OE5XOL G,438.525000,DUP-,7.600000,DV,OFF,88.5Hz,YES,Approximate,48.420000,14.280000,+1:00
8,Europe - Western,Moenichkirchen,Austria,OE3XWW B,OE3XWW G,438.550000,DUP-,7.600000,DV,OFF,88.5Hz,YES,Approximate,47.520000,16.040000,+1:00
8,Europe - Western,Unterberg,Austria,OE3XVI B,OE3XVI G,438.275000,DUP-,7.600000,DV,OFF,88.5Hz,YES,Approximate,47.940000,15.820000,+1:00
8,Europe - Western,Vienna,Austria,OE1XDS A,OE1XDS G,1298.650000,DUP-,28.000000,DV,OFF,88.5Hz,YES,Approximate,48.230000,16.350000,+1:00
8,Europe - Western,Vienna,Austria,OE1XDS B,OE1XDS G,438.525000,DUP-,7.600000,DV,OFF,88.5Hz,YES,Approximate,48.230000,16.350000,+1:00
8,Europe - Western,Vorarlberg,Austria,OE9XDV B,OE9XDV G,438.650000,DUP-,7.600000,DV,OFF,88.5Hz,YES,Approximate,47.200000,9.640000,+2:00
8,Europe - Western,Arlon,Belgium,ON0LUS B,ON0LUS G,439.575000,DUP-,7.600000,DV,OFF,88.5Hz,YES,Approximate,49.680000,5.840000,+1:00
8,Europe - Western,Boom,Belgium,ON0DP  A,ON0DP  G,1298.225000,DUP-,28.000000,DV,OFF,88.5Hz,YES,Approximate,51.110000,4.370000,+1:00
8,Europe - Western,Boom,Belgium,ON0DP  B,ON0DP  G,438.462500,DUP-,7.600000,DV,OFF,88.5Hz,YES,Approximate,51.110000,4.370000,+1:00
8,Europe - Western,Boom,Belgium,ON0DP  C,ON0DP  G,145.575000,DUP-,0.600000,DV,OFF,88.5Hz,YES,Approximate,51.110000,4.370000,+1:00
8,Europe - Western,Diest,Belgium,ON0DST B,ON0DST G,439.450000,DUP-,7.600000,DV,OFF,88.5Hz,YES,Approximate,51.010000,5.130000,+1:00
8,Europe - Western,Jupille-sur-Meus,Belgium,ON0LGE B,ON0LGE G,439.587500,DUP-,7.600000,DV,OFF,88.5Hz,YES,Approximate,50.650000,5.650000,+1:00
8,Europe - Western,Kortrijk,Belgium,ON0CK  B,ON0CK  G,438.200000,DUP-,7.600000,DV,OFF,88.5Hz,YES,Approximate,50.830000,3.280000,+1:00
8,Europe - Western,Le Roeulx,Belgium,ON0PLL B,ON0PLL G,439.437500,DUP+,7.600000,DV,OFF,88.5Hz,YES,Approximate,50.500000,4.130000,+1:00
8,Europe - Western,Lierneux,Belgium,ON0BE  B,ON0BE  G,439.362500,DUP-,0.000000,DV,OFF,88.5Hz,YES,Approximate,50.280000,5.850000,+1:00
8,Europe - Western,Lokeren,Belgium,ON0LOK B,ON0LOK G,438.300000,DUP-,7.600000,DV,OFF,88.5Hz,YES,Approximate,51.120000,4.010000,+1:00
8,Europe - Western,Oostende,Belgium,ON0OS  A,ON0OS  G,1298.100000,DUP-,28.000000,DV,OFF,88.5Hz,YES,Approximate,51.240000,2.940000,+1:00
8,Europe - Western,Oostende,Belgium,ON0OS  B,ON0OS  G,439.500000,DUP-,7.600000,DV,OFF,88.5Hz,YES,Approximate,51.240000,2.940000,+1:00
8,Europe - Western,Oostende,Belgium,ON0OS  C,ON0OS  G,145.712500,DUP-,0.600000,DV,OFF,88.5Hz,YES,Approximate,51.240000,2.940000,+1:00
8,Europe - Western,Pont-a-Celles,Belgium,ON0CPS B,ON0CPS G,439.562500,DUP-,7.600000,DV,OFF,88.5Hz,YES,Approximate,50.510000,4.430000,+1:00
8,Europe - Western,Signal de Botran,Belgium,ON0TB  B,ON0TB  G,438.275000,DUP-,7.600000,DV,OFF,88.5Hz,YES,Approximate,50.510000,6.100000,+1:00
8,Europe - Western,Sint-Niklaas,Belgium,ON0SNW B,ON0SNW G,439.400000,DUP-,7.600000,DV,OFF,88.5Hz,YES,Approximate,51.200000,4.160000,+1:00
8,Europe - Western,Thuin,Belgium,ON0THN B,ON0THN G,439.000000,DUP-,7.600000,DV,OFF,88.5Hz,YES,Approximate,50.360000,4.290000,+1:00
8,Europe - Western,Vreren,Belgium,ON0LB  B,ON0LB  G,438.862500,DUP-,7.600000,DV,OFF,88.5Hz,YES,Approximate,50.740000,5.510000,+1:00
8,Europe - Western,Allevard,France,F1ZCD  B,F1ZCD  G,434.625000,DUP-,0.000000,DV,OFF,88.5Hz,YES,Approximate,45.400000,6.080000,+1:00
8,Europe - Western,Aubagne,France,F5ZJQ  B,F5ZJQ  G,439.350000,DUP-,7.600000,DV,OFF,88.5Hz,YES,Approximate,43.300000,5.570000,+1:00
8,Europe - Western,Aubagne,France,F5ZJQ  C,F5ZJQ  G,144.837500,DUP-,0.000000,DV,OFF,88.5Hz,YES,Approximate,43.300000,5.570000,+1:00
8,Europe - Western,Beaujolais,France,F1ZFG  B,F1ZFG  G,439.962500,DUP-,9.400000,DV,OFF,88.5Hz,YES,Approximate,46.200000,4.630000,+1:00
8,Europe - Western,Beaujolais,France,F1ZFG  C,F1ZFG  G,144.812500,DUP-,0.000000,DV,OFF,88.5Hz,YES,Approximate,46.200000,4.630000,+1:00
8,Europe - Western,Courbevoie - Par,France,F1ZPL  B,F1ZPL  G,430.262500,DUP+,9.400000,DV,OFF,88.5Hz,YES,Approximate,48.900000,2.240000,+1:00
8,Europe - Western,Courbevoie - Par,France,F1ZPL  C,F1ZPL  G,145.512500,DUP-,0.600000,DV,OFF,88.5Hz,YES,Approximate,48.900000,2.240000,+1:00
8,Europe - Western,Dreux,France,F1ZII  B,F1ZII  G,439.350000,DUP-,7.600000,DV,OFF,88.5Hz,YES,Approximate,48.740000,1.360000,+1:00
8,Europe - Western,Fontbruno,France,F5ZJL  B,F5ZJL  G,430.225000,DUP+,1.600000,DV,OFF,88.5Hz,YES,Approximate,43.470000,2.260000,+1:00
8,Europe - Western,Gap,France,F1ZYH  B,F1ZYH  G,439.350000,DUP-,7.600000,DV,OFF,88.5Hz,YES,Approximate,44.620000,6.120000,+1:00
8,Europe - Western,Gap,France,F1ZYH  C,F1ZYH  G,144.837500,DUP-,0.000000,DV,OFF,88.5Hz,YES,Approximate,44.620000,6.120000,+1:00
8,Europe - Western,Haguenau,France,F1ZDZ  B,F1ZDZ  G,430.375000,DUP+,9.400000,DV,OFF,88.5Hz,YES,Approximate,48.830000,7.810000,+1:00
8,Europe - Western,Jugeals,France,F1ZJO  B,F1ZJO  G,439.825000,DUP+,9.400000,DV,OFF,88.5Hz,YES,Approximate,45.170000,1.920000,+1:00
8,Europe - Western,La Gavotte,France,F5ZLB  B,F5ZLB  G,439.875000,DUP-,9.400000,DV,OFF,88.5Hz,YES,Approximate,43.380000,5.340000,+1:00
8,Europe - Western,Le Bourg-Dun,France,F5ZKO  B,F5ZKO  G,439.350000,DUP-,7.600000,DV,OFF,88.5Hz,YES,Approximate,49.890000,0.900000,+1:00
8,Europe - Western,Le Larmont,France,F5ZCV  B,F5ZCV  G,443.500000,DUP-,0.000000,DV,OFF,88.5Hz,YES,Approximate,46.900000,6.400000,+1:00
8,Europe - Western,Les Andrieux,France,F1ZJH  B,F1ZJH  G,439.350000,DUP-,7.600000,DV,OFF,88.5Hz,YES,Approximate,44.830000,6.170000,+1:00
8,Europe - Western,Lyon,France,F1ZDI  B,F1ZDI  G,439.350000,DUP-,7.600000,DV,OFF,88.5Hz,YES,Approximate,45.750000,4.840000,+1:00
8,Europe - Western,Lyon,France,F1ZDI  C,F1ZDI  G,144.837500,DUP-,0.000000,DV,OFF,88.5Hz,YES,Approximate,45.750000,4.840000,+1:00
8,Europe - Western,Lyon,France,F1ZEM  B,F1ZEM  G,439.512500,DUP-,7.600000,DV,OFF,88.5Hz,YES,Approximate,45.430000,5.010000,+1:00
8,Europe - Western,Marseille,France,F1ZJN  B,F1ZJN  G,439.350000,DUP-,7.600000,DV,OFF,88.5Hz,YES,Approximate,43.320000,5.380000,+1:00
8,Europe - Western,Moirans-en-Monta,France,F1ZJR  B,F1ZJR  G,430.450000,DUP+,9.400000,DV,OFF,88.5Hz,YES,Approximate,46.440000,5.730000,+1:00
8,Europe - Western,Monneville,France,F5ZFY  B,F5ZFY  G,439.912500,DUP-,9.400000,DV,OFF,88.5Hz,YES,Approximate,49.210000,1.970000,+1:00
8,Europe - Western,Montmarault,France,F1ZHY  B,F1ZHY  G,430.400000,DUP+,9.400000,DV,OFF,88.5Hz,YES,Approximate,46.320000,2.950000,+1:00
8,Europe - Western,Mt. Revard,France,F1ZBO  B,F1ZBO  G,430.050000,DUP+,1.600000,DV,OFF,88.5Hz,YES,Approximate,45.690000,5.980000,+1:00
8,Europe - Western,Nancy,France,F1ZGK  B,F1ZGK  G,439.350000,DUP-,7.600000,DV,OFF,88.5Hz,YES,Approximate,48.680000,6.180000,0:00
8,Europe - Western,Nice,France,F5ZKP  B,F5ZKP  G,439.562500,DUP-,7.600000,DV,OFF,88.5Hz,YES,Approximate,43.700000,7.260000,+1:00
8,Europe - Western,Saint Amand les,France,F1ZLX  B,F1ZLX  G,430.425000,DUP+,9.400000,DV,OFF,88.5Hz,YES,Approximate,50.440000,3.450000,+1:00
8,Europe - Western,Saint Chaffrey,France,F1ZDF  B,F1ZDF  G,439.350000,DUP-,7.600000,DV,OFF,88.5Hz,YES,Approximate,44.930000,6.600000,+1:00
8,Europe - Western,Saint Chaffrey,France,F1ZDF  C,F1ZDF  G,145.262500,DUP-,0.000000,DV,OFF,88.5Hz,YES,Approximate,44.930000,6.600000,+1:00
8,Europe - Western,Saint Raphael,France,F1ZIL  B,F1ZIL  G,439.350000,DUP-,7.600000,DV,OFF,88.5Hz,YES,Approximate,43.440000,6.800000,+1:00
8,Europe - Western,Sainte-Anne-sur-,France,F5ZKE  B,F5ZKE  G,439.850000,DUP-,9.400000,DV,OFF,88.5Hz,YES,Approximate,45.500000,5.240000,+1:00
8,Europe - Western,St Appolinard,France,F1ZID  B,F1ZID  G,430.200000,DUP+,9.400000,DV,OFF,88.5Hz,YES,Approximate,45.350000,4.650000,+1:00
8,Europe - Western,Thionville,France,F5ZKN  B,F5ZKN  G,438.500000,DUP-,7.600000,DV,OFF,88.5Hz,YES,Approximate,49.380000,6.140000,+1:00
8,Europe - Western,Toulouse,France,F1ZGG  B,F1ZGG  G,439.900000,DUP-,9.400000,DV,OFF,88.5Hz,YES,Approximate,43.620000,1.460000,+1:00
8,Europe - Western,Toulouse,France,F1ZGG  C,F1ZGG  G,145.612500,DUP-,0.600000,DV,OFF,88.5Hz,YES,Approximate,43.620000,1.460000,+1:00
8,Europe - Western,Toulouse,France,F5ZLG  B,F5ZLG  G,439.925000,DUP-,9.400000,DV,OFF,88.5Hz,YES,Approximate,43.590000,1.500000,+1:00
8,Europe - Western,Urbain,France,F1ZCK  B,F1ZCK  G,430.237500,DUP+,9.400000,DV,OFF,88.5Hz,YES,Approximate,45.430000,4.370000,0:00
8,Europe - Western,Valenciennes,France,F1ZBE  A,F1ZBE  G,1298.500000,DUP-,28.000000,DV,OFF,88.5Hz,YES,Approximate,50.370000,3.510000,+1:00
8,Europe - Western,Valenciennes,France,F1ZBE  B,F1ZBE  G,433.025000,DUP-,1.600000,DV,OFF,88.5Hz,YES,Approximate,50.370000,3.510000,+1:00
8,Europe - Western,Valenciennes,France,F1ZBE  C,F1ZBE  G,145.687500,DUP-,0.600000,DV,OFF,88.5Hz,YES,Approximate,50.370000,3.510000,+1:00
8,Europe - Western,Valenciennes,France,F1ZGY  A,F1ZGY  G,1298.500000,DUP-,28.000000,DV,OFF,88.5Hz,YES,Approximate,50.370000,3.510000,0:00
8,Europe - Western,Valenciennes,France,F1ZGY  B,F1ZGY  G,433.025000,DUP-,1.600000,DV,OFF,88.5Hz,YES,Approximate,50.370000,3.510000,0:00
8,Europe - Western,Valenciennes,France,F1ZGY  C,F1ZGY  G,145.787500,DUP-,0.600000,DV,OFF,88.5Hz,YES,Approximate,50.370000,3.510000,0:00
8,Europe - Western,Vosges du Nord,France,F5ZEE  B,F5ZEE  G,439.800000,DUP-,9.400000,DV,OFF,88.5Hz,YES,Approximate,48.980000,7.620000,+1:00
8,Europe - Western,Vosges du Nord,France,F5ZEE  C,F5ZEE  G,145.687500,DUP-,0.600000,DV,OFF,88.5Hz,YES,Approximate,48.980000,7.620000,+1:00
8,Europe - Western,Dippech,Luxembou,LX0DRD B,LX0DRD G,439.037500,DUP-,7.600000,DV,OFF,88.5Hz,YES,Approximate,49.590000,5.980000,+1:00
8,Europe - Western,Junglinster,Luxembou,LX0DRJ B,LX0DRJ G,439.400000,DUP-,7.600000,DV,OFF,88.5Hz,YES,Approximate,49.720000,6.270000,+1:00
8,Europe - Western,Luxemburg,Luxembou,LX0RL  A,LX0RL  G,433.575000,DUP-,5.000000,DV,OFF,88.5Hz,YES,Approximate,49.700000,6.190000,+1:00
8,Europe - Western,Luxemburg,Luxembou,LX9EPF A,LX9EPF G,432.950000,DUP-,5.000000,DV,OFF,88.5Hz,YES,Approximate,49.610000,6.130000,+1:00
8,Europe - Western,Riesenhaff,Luxembou,LX0DRH B,LX0DRH G,438.200000,DUP-,7.600000,DV,OFF,88.5Hz,YES,Approximate,49.850000,5.820000,+1:00
8,Europe - Western,Ronnebesch,Luxembou,LX0DRV B,LX0DRV G,438.525000,DUP-,7.600000,DV,OFF,88.5Hz,YES,Approximate,49.950000,6.160000,+1:00
8,Europe - Western,Almere,Netherla,PI1ALM A,PI1ALM G,434.220000,DUP+,5.000000,DV,OFF,88.5Hz,YES,Approximate,52.360000,5.270000,+1:00
8,Europe - Western,Almere,Netherla,PI1ALM B,PI1ALM G,438.062500,DUP+,7.600000,DV,OFF,88.5Hz,YES,Approximate,52.360000,5.270000,+1:00
8,Europe - Western,Almere,Netherla,PI1ALM C,PI1ALM G,145.762500,DUP+,0.600000,DV,OFF,88.5Hz,YES,Approximate,52.360000,5.270000,+1:00
8,Europe - Western,Almere,Netherla,PI1SHA A,PI1SHA G,1297.225000,DUP-,30.000000,DV,OFF,88.5Hz,YES,Approximate,52.390000,5.290000,+1:00
8,Europe - Western,Almere,Netherla,PI1SHA B,PI1SHA G,438.312500,DUP-,7.600000,DV,OFF,88.5Hz,YES,Approximate,52.390000,5.290000,+1:00
8,Europe - Western,Almere,Netherla,PI1SHA C,PI1SHA G,144.900000,DUP-,0.000000,DV,OFF,88.5Hz,YES,Approximate,52.390000,5.290000,+1:00
8,Europe - Western,Amsterdam,Netherla,PI1RYS B,PI1RYS G,438.050000,DUP-,7.600000,DV,OFF,88.5Hz,YES,Approximate,52.390000,4.920000,+1:00
8,Europe - Western,Breda,Netherla,PI1HWB B,PI1HWB G,438.100000,DUP-,7.600000,DV,OFF,88.5Hz,YES,Approximate,51.590000,4.750000,+1:00
8,Europe - Western,Delft,Netherla,PI1HGL B,PI1HGL G,438.250000,DUP-,7.600000,DV,OFF,88.5Hz,YES,Approximate,52.010000,4.370000,+1:00
8,Europe - Western,Den Helder,Netherla,PI1DHD B,PI1DHD G,438.175000,DUP-,7.600000,DV,OFF,88.5Hz,YES,Approximate,52.950000,4.780000,+1:00
8,Europe - Western,Den Helder,Netherla,PI1DHD C,PI1DHD G,144.937500,DUP-,0.000000,DV,OFF,88.5Hz,YES,Approximate,52.950000,4.780000,+1:00
8,Europe - Western,Drachten,Netherla,PI1DRA B,PI1DRA G,438.400000,DUP-,7.600000,DV,OFF,88.5Hz,YES,Approximate,53.110000,6.110000,+1:00
8,Europe - Western,Eindhoven,Netherla,PI1DSE B,PI1DSE G,438.400000,DUP-,7.600000,DV,OFF,88.5Hz,YES,Approximate,51.440000,5.510000,+1:00
8,Europe - Western,Eindhoven,Netherla,PI1DSE C,PI1DSE G,144.900000,DUP-,0.000000,DV,OFF,88.5Hz,YES,Approximate,51.440000,5.510000,+1:00
8,Europe - Western,Geldrop,Netherla,PI1GLP C,PI1GLP G,144.975000,DUP-,0.000000,DV,OFF,88.5Hz,YES,Approximate,51.420000,5.570000,+1:00
8,Europe - Western,Goes,Netherla,PI2ZLD B,PI2ZLD G,438.325000,DUP-,7.600000,DV,OFF,88.5Hz,YES,Approximate,51.500000,3.900000,+1:00
8,Europe - Western,Goes,Netherla,PI2ZLD C,PI2ZLD G,144.925000,DUP+,0.600000,DV,OFF,88.5Hz,YES,Approximate,51.500000,3.900000,+1:00
8,Europe - Western,IJsselstein,Netherla,PI1UTR B,PI1UTR G,438.075000,DUP-,7.600000,DV,OFF,88.5Hz,YES,Approximate,52.010000,5.060000,+1:00
8,Europe - Western,Meppel,Netherla,PI1MEP A,PI1MEP G,1297.225000,DUP-,30.000000,DV,OFF,88.5Hz,YES,Approximate,52.700000,6.200000,+1:00
8,Europe - Western,Meppel,Netherla,PI1MEP B,PI1MEP G,431.000000,DUP-,0.000000,DV,OFF,88.5Hz,YES,Approximate,52.700000,6.200000,+1:00
8,Europe - Western,Meppel,Netherla,PI1MEP C,PI1MEP G,144.825000,DUP-,0.000000,DV,OFF,88.5Hz,YES,Approximate,52.700000,6.200000,+1:00
8,Europe - Western,Sneek,Netherla,PI1SNK A,PI1SNK G,434.220000,DUP+,5.000000,DV,OFF,88.5Hz,YES,Approximate,53.030000,5.650000,+1:00
8,Europe - Western,Sneek,Netherla,PI1SNK B,PI1SNK G,430.950000,DUP+,7.600000,DV,OFF,88.5Hz,YES,Approximate,53.030000,5.650000,+1:00
8,Europe - Western,Sneek,Netherla,PI1SNK C,PI1SNK G,144.862500,DUP-,0.000000,DV,OFF,88.5Hz,YES,Approximate,53.030000,5.650000,+1:00
8,Europe - Western,Aadorf,Switzerl,HB9W   B,HB9W   G,439.487500,DUP-,7.600000,DV,OFF,88.5Hz,YES,Approximate,47.500000,8.910000,+1:00
8,Europe - Western,Basel,Switzerl,HB9EAS B,HB9EAS G,439.537500,DUP-,7.600000,DV,OFF,88.5Hz,YES,Approximate,47.530000,7.600000,+1:00
8,Europe - Western,Geneva,Switzerl,HB9AR  B,HB9AR  G,439.325000,DUP-,7.600000,DV,OFF,88.5Hz,YES,Approximate,46.200000,6.120000,+1:00
8,Europe - Western,Grosswangen,Switzerl,HB9DS  C,HB9DS  G,145.587500,DUP-,0.600000,DV,OFF,88.5Hz,YES,Approximate,47.130000,8.050000,+1:00
8,Europe - Western,Kyburg (Winterth,Switzerl,HB9HD  C,HB9HD  G,145.587500,DUP-,0.600000,DV,OFF,88.5Hz,YES,Approximate,47.450000,8.750000,+1:00
8,Europe - Western,La Barillette,Switzerl,HB9IAC C,HB9IAC G,145.762500,DUP-,0.600000,DV,OFF,88.5Hz,YES,Approximate,46.430000,6.130000,+1:00
8,Europe - Western,Le Locle,Switzerl,HB9LC  B,HB9LC  G,433.450000,DUP-,0.000000,DV,OFF,88.5Hz,YES,Approximate,47.050000,6.760000,+1:00
8,Europe - Western,Linthal,Switzerl,HB9DR  B,HB9DR  G,439.512500,DUP-,7.600000,DV,OFF,88.5Hz,YES,Approximate,46.930000,9.000000,+1:00
8,Europe - Western,Luzern (Sonnenbe,Switzerl,HB9LU  B,HB9LU  G,439.575000,DUP-,7.600000,DV,OFF,88.5Hz,YES,Approximate,47.050000,8.280000,+1:00
8,Europe - Western,M.Tamaro,Switzerl,HB9H   B,HB9H   G,439.550000,DUP-,7.600000,DV,OFF,88.5Hz,YES,Approximate,46.110000,8.860000,+1:00
8,Europe - Western,Mt. Schilthorn,Switzerl,HB9BO  B,HB9BO  G,439.525000,DUP-,7.600000,DV,OFF,88.5Hz,YES,Approximate,46.790000,8.050000,+1:00
8,Europe - Western,Mt. Schilthorn,Switzerl,HB9BO  C,HB9BO  G,145.612500,DUP-,0.600000,DV,OFF,88.5Hz,YES,Approximate,46.790000,8.050000,+1:00
8,Europe - Western,Rickenbach,Switzerl,HB9AW  C,HB9AW  G,145.787500,DUP-,0.600000,DV,OFF,88.5Hz,YES,Approximate,47.070000,8.020000,+1:00
8,Europe - Western,Saint-Legier,Switzerl,HB9UCQ A,HB9UCQ G,145.850000,DUP-,0.000000,DV,OFF,88.5Hz,YES,Approximate,46.490000,6.890000,+1:00
8,Europe - Western,Saint-Legier,Switzerl,HB9UCQ B,HB9UCQ G,439.462500,DUP-,7.600000,DV,OFF,88.5Hz,YES,Approximate,46.490000,6.890000,+1:00
8,Europe - Western,Saint-Legier,Switzerl,HB9UCQ C,HB9UCQ G,145.000000,DUP-,0.000000,DV,OFF,88.5Hz,YES,Approximate,46.490000,6.890000,+1:00
8,Europe - Western,Yverdon-les-bain,Switzerl,HB9VD  B,HB9VD  G,438.775000,DUP-,7.600000,DV,OFF,88.5Hz,YES,Approximate,46.850000,6.630000,+1:00
8,Europe - Western,Zuerich Uetliber,Switzerl,HB9ZRH C,HB9ZRH G,145.575000,DUP-,0.600000,DV,OFF,88.5Hz,YES,Approximate,47.350000,8.500000,+1:00
8,Europe - Western,Zug,Switzerl,HB9RF  B,HB9RF  G,439.462500,DUP-,7.600000,DV,OFF,88.5Hz,YES,Approximate,47.030000,8.520000,+1:00
9,Germany,Aachen,Baden-Wu,DB0WA  B,DB0WA  G,438.587500,DUP-,7.600000,DV,OFF,88.5Hz,YES,Approximate,50.750000,6.050000,+1:00
9,Germany,Dammer Berge,Baden-Wu,DB0DAM B,DB0DAM G,439.525000,DUP-,7.600000,DV,OFF,88.5Hz,YES,Approximate,52.560000,8.220000,+1:00
9,Germany,Doerenberg,Baden-Wu,DB0DOS B,DB0DOS G,439.456250,DUP-,7.600000,DV,OFF,88.5Hz,YES,Approximate,52.190000,8.050000,+1:00
9,Germany,Flugplatz Freibu,Baden-Wu,DB0FRB B,DB0FRB G,439.562500,DUP-,0.000000,DV,OFF,88.5Hz,YES,Approximate,48.020000,7.840000,+1:00
9,Germany,Goppingen,Baden-Wu,DB0RIG B,DB0RIG G,439.462500,DUP-,7.600000,DV,OFF,88.5Hz,YES,Approximate,48.710000,9.660000,+1:00
9,Germany,Hochblauen,Baden-Wu,DB0DB  B,DB0DB  G,439.587500,DUP-,7.600000,DV,OFF,88.5Hz,YES,Approximate,50.690000,7.250000,+1:00
9,Germany,Itzehoe,Baden-Wu,DB0IZ  B,DB0IZ  G,439.462500,DUP-,7.600000,DV,OFF,88.5Hz,YES,Approximate,53.880000,9.500000,+1:00
9,Germany,Karlsbad,Baden-Wu,DB0DJ  A,DB0DJ  G,1298.575000,DUP-,28.000000,DV,OFF,88.5Hz,YES,Approximate,48.880000,8.510000,+1:00
9,Germany,Karlsbad,Baden-Wu,DB0DJ  B,DB0DJ  G,439.500000,DUP-,7.600000,DV,OFF,88.5Hz,YES,Approximate,48.880000,8.510000,+1:00
9,Germany,Karlsbad,Baden-Wu,DB0DJ  C,DB0DJ  G,145.762500,DUP-,0.600000,DV,OFF,88.5Hz,YES,Approximate,48.880000,8.510000,+1:00
9,Germany,Koeln,Baden-Wu,DB0TUV B,DB0TUV G,439.587500,DUP-,7.600000,DV,OFF,88.5Hz,YES,Approximate,50.930000,7.000000,+1:00
9,Germany,Kruft,Baden-Wu,DB0LJ  B,DB0LJ  G,439.825000,DUP-,9.400000,DV,OFF,88.5Hz,YES,Approximate,50.390000,7.350000,+1:00
9,Germany,Leipzig,Baden-Wu,DM0LEI B,DM0LEI G,439.475000,DUP-,7.600000,DV,OFF,88.5Hz,YES,Approximate,51.380000,12.470000,+1:00
9,Germany,Ludwigsburg,Baden-Wu,DB0LBX B,DB0LBX G,439.550000,DUP-,7.600000,DV,OFF,88.5Hz,YES,Approximate,48.890000,9.190000,+1:00
9,Germany,Luedersdorf,Baden-Wu,DM0LUE B,DM0LUE G,439.550000,DUP-,7.600000,DV,OFF,88.5Hz,YES,Approximate,53.830000,10.830000,+1:00
9,Germany,Moenchweiler,Baden-Wu,DB0VS  A,DB0VS  G,1298.450000,DUP-,28.000000,DV,OFF,88.5Hz,YES,Approximate,48.110000,8.420000,+1:00
9,Germany,Moenchweiler,Baden-Wu,DB0VS  B,DB0VS  G,438.300000,DUP-,7.600000,DV,OFF,88.5Hz,YES,Approximate,48.110000,8.420000,+1:00
9,Germany,Moenchweiler,Baden-Wu,DB0VS  C,DB0VS  G,145.737500,DUP-,0.600000,DV,OFF,88.5Hz,YES,Approximate,48.110000,8.420000,+1:00
9,Germany,Reutlingen,Baden-Wu,DB0REU B,DB0REU G,439.575000,DUP-,7.600000,DV,OFF,88.5Hz,YES,Approximate,48.510000,9.200000,+1:00
9,Germany,Schramberg-Sulge,Baden-Wu,DB0CI  B,DB0CI  G,439.500000,DUP-,7.600000,DV,OFF,88.5Hz,YES,Approximate,48.220000,8.420000,+1:00
9,Germany,Siegen---Eisernh,Baden-Wu,DB0EIS B,DB0EIS G,439.481250,DUP-,7.600000,DV,OFF,88.5Hz,YES,Approximate,50.850000,8.040000,+1:00
9,Germany,Singen,Baden-Wu,DM0SAT B,DM0SAT G,438.700000,DUP-,7.600000,DV,OFF,88.5Hz,YES,Approximate,47.770000,8.830000,+1:00
9,Germany,Titisee Schwarzw,Baden-Wu,DB0TIT B,DB0TIT G,439.487500,DUP-,7.600000,DV,OFF,88.5Hz,YES,Approximate,47.950000,8.240000,+1:00
9,Germany,Todtmoos,Baden-Wu,DB0TOD B,DB0TOD G,438.500000,DUP-,7.600000,DV,OFF,88.5Hz,YES,Approximate,47.770000,8.000000,+1:00
9,Germany,Wertheim am Main,Baden-Wu,DB0SWR B,DB0SWR G,438.375000,DUP-,7.600000,DV,OFF,88.5Hz,YES,Approximate,49.690000,9.470000,+1:00
9,Germany,Wilhelmsdorf,Baden-Wu,DB0WV  A,DB0WV  G,1298.450000,DUP-,28.000000,DV,OFF,88.5Hz,YES,Approximate,47.830000,9.410000,+1:00
9,Germany,Wilhelmsdorf,Baden-Wu,DB0WV  B,DB0WV  G,439.562500,DUP-,7.600000,DV,OFF,88.5Hz,YES,Approximate,47.830000,9.410000,+1:00
9,Germany,Wilhelmsdorf,Baden-Wu,DB0WV  C,DB0WV  G,145.687500,DUP-,0.600000,DV,OFF,88.5Hz,YES,Approximate,47.830000,9.410000,+1:00
9,Germany,Zeil am Main,Baden-Wu,DB0HAS B,DB0HAS G,439.975000,DUP-,9.400000,DV,OFF,88.5Hz,YES,Approximate,50.020000,10.600000,+1:00
9,Germany,Allgaeu,Bavaria,DB0ESS A,DB0ESS G,1298.425000,DUP-,28.000000,DV,OFF,88.5Hz,YES,Approximate,47.560000,10.320000,+1:00
9,Germany,Allgaeu,Bavaria,DB0ESS B,DB0ESS G,439.512500,DUP-,7.600000,DV,OFF,88.5Hz,YES,Approximate,47.560000,10.320000,+1:00
9,Germany,Allgaeu,Bavaria,DB0ESS C,DB0ESS G,145.762500,DUP-,0.600000,DV,OFF,88.5Hz,YES,Approximate,47.560000,10.320000,+1:00
9,Germany,Augsburg,Bavaria,DB0ZKA B,DB0ZKA G,438.400000,DUP-,7.600000,DV,OFF,88.5Hz,YES,Approximate,48.340000,10.910000,+1:00
9,Germany,Bamberg,Bavaria,DB0ADB B,DB0ADB G,439.550000,DUP-,7.600000,DV,OFF,88.5Hz,YES,Approximate,49.890000,10.860000,+1:00
9,Germany,Donauwoerth,Bavaria,DB0DON B,DB0DON G,439.468750,DUP-,7.600000,DV,OFF,88.5Hz,YES,Approximate,48.740000,10.790000,+1:00
9,Germany,Fichtelberg,Bavaria,DB0FIB B,DB0FIB G,439.587500,DUP-,7.600000,DV,OFF,88.5Hz,YES,Approximate,50.430000,12.960000,+1:00
9,Germany,Marktredwitz,Bavaria,DB0WUN B,DB0WUN G,439.575000,DUP-,7.600000,DV,OFF,88.5Hz,YES,Approximate,50.010000,12.140000,+1:00
9,Germany,Neuhaus,Bavaria,DB0HCC A,DB0HCC G,1296.200000,DUP-,0.000000,DV,OFF,88.5Hz,YES,Approximate,53.820000,9.040000,+1:00
9,Germany,Neuhaus,Bavaria,DB0HCC B,DB0HCC G,438.575000,DUP-,7.600000,DV,OFF,88.5Hz,YES,Approximate,53.820000,9.040000,+1:00
9,Germany,Neuhaus,Bavaria,DB0HCC C,DB0HCC G,144.000000,DUP-,0.000000,DV,OFF,88.5Hz,YES,Approximate,53.820000,9.040000,+1:00
9,Germany,Nuernberg,Bavaria,DB0VOX B,DB0VOX G,439.525000,DUP-,7.600000,DV,OFF,88.5Hz,YES,Approximate,49.430000,11.040000,+1:00
9,Germany,Schneeberg / Fic,Bavaria,DB0ZB  B,DB0ZB  G,439.562500,DUP-,7.600000,DV,OFF,88.5Hz,YES,Approximate,50.060000,11.860000,+1:00
9,Germany,Schweinfurt,Bavaria,DB0FWS B,DB0FWS G,439.537500,DUP-,7.600000,DV,OFF,88.5Hz,YES,Approximate,50.050000,10.220000,+1:00
9,Germany,Steinach/Straubi,Bavaria,DB0RDH A,DB0RDH G,1298.450000,DUP-,28.000000,DV,OFF,88.5Hz,YES,Approximate,48.950000,12.860000,+1:00
9,Germany,Steinach/Straubi,Bavaria,DB0RDH B,DB0RDH G,439.475000,DUP-,7.600000,DV,OFF,88.5Hz,YES,Approximate,48.950000,12.860000,+1:00
9,Germany,Steinach/Straubi,Bavaria,DB0RDH C,DB0RDH G,145.762500,DUP-,0.600000,DV,OFF,88.5Hz,YES,Approximate,48.950000,12.860000,+1:00
9,Germany,Tegelberg/Allgae,Bavaria,DB0OAL B,DB0OAL G,438.325000,DUP-,7.600000,DV,OFF,88.5Hz,YES,Approximate,47.560000,10.780000,+1:00
9,Germany,Wurzburg,Bavaria,DB0WZ  A,DB0WZ  G,1298.325000,DUP-,28.000000,DV,OFF,88.5Hz,YES,Approximate,49.790000,9.970000,+1:00
9,Germany,Wurzburg,Bavaria,DB0WZ  B,DB0WZ  G,439.475000,DUP-,7.600000,DV,OFF,88.5Hz,YES,Approximate,49.790000,9.970000,+1:00
9,Germany,Wurzburg,Bavaria,DB0WZ  C,DB0WZ  G,145.725000,DUP-,0.600000,DV,OFF,88.5Hz,YES,Approximate,49.790000,9.970000,+1:00
9,Germany,Berlin,Berlin,DB0DF  B,DB0DF  G,439.462500,DUP-,7.600000,DV,OFF,88.5Hz,YES,Approximate,52.540000,13.490000,+1:00
9,Germany,Bremen,Bremen,DB0HFT A,DB0HFT G,1298.450000,DUP-,28.000000,DV,OFF,88.5Hz,YES,Approximate,53.080000,8.800000,+1:00
9,Germany,Bremen,Bremen,DB0HFT B,DB0HFT G,439.487500,DUP-,7.600000,DV,OFF,88.5Hz,YES,Approximate,53.080000,8.800000,+1:00
9,Germany,Bremerhaven,Bremen,DB0BHN B,DB0BHN G,439.537500,DUP-,7.600000,DV,OFF,88.5Hz,YES,Approximate,53.550000,8.580000,+1:00
9,Germany,Hamburg-Mitte,Hamburg,DM0HMB A,DM0HMB G,1298.725000,DUP-,28.000000,DV,OFF,88.5Hz,YES,Approximate,53.560000,10.030000,+1:00
9,Germany,Hamburg-Mitte,Hamburg,DM0HMB B,DM0HMB G,439.450000,DUP-,7.600000,DV,OFF,88.5Hz,YES,Approximate,53.560000,10.030000,+1:00
9,Germany,Hamburg-Mitte,Hamburg,DM0HMB C,DM0HMB G,145.787500,DUP-,0.600000,DV,OFF,88.5Hz,YES,Approximate,53.560000,10.030000,+1:00
9,Germany,Bad Soden,Hesse,DB0ICM A,DB0ICM G,1298.450000,DUP-,28.000000,DV,OFF,88.5Hz,YES,Approximate,50.150000,8.510000,+1:00
9,Germany,Bad Soden,Hesse,DB0ICM B,DB0ICM G,439.975000,DUP-,9.400000,DV,OFF,88.5Hz,YES,Approximate,50.150000,8.510000,+1:00
9,Germany,DARC HQ in Bauna,Hesse,DB0AFZ B,DB0AFZ G,439.475000,DUP-,7.600000,DV,OFF,88.5Hz,YES,Approximate,51.260000,9.410000,+1:00
9,Germany,Eltville am Rhei,Hesse,DB0VA  B,DB0VA  G,438.325000,DUP-,7.600000,DV,OFF,88.5Hz,YES,Approximate,50.030000,8.120000,+1:00
9,Germany,Eschborn,Hesse,DM0DWD C,DM0DWD G,145.650000,DUP-,0.000000,DV,OFF,88.5Hz,YES,Approximate,50.150000,8.570000,+1:00
9,Germany,Giessen,Hesse,DB0SIF B,DB0SIF G,439.487500,DUP-,7.600000,DV,OFF,88.5Hz,YES,Approximate,50.580000,8.670000,+1:00
9,Germany,Gr.Feldberg/Fran,Hesse,DB0HRF A,DB0HRF G,1242.450000,DUP+,28.000000,DV,OFF,88.5Hz,YES,Approximate,50.240000,8.460000,+1:00
9,Germany,Gr.Feldberg/Fran,Hesse,DB0HRF B,DB0HRF G,439.450000,DUP-,7.600000,DV,OFF,88.5Hz,YES,Approximate,50.240000,8.460000,+1:00
9,Germany,Hoher Meissner/K,Hesse,DB0HRM B,DB0HRM G,439.525000,DUP-,7.600000,DV,OFF,88.5Hz,YES,Approximate,51.210000,9.850000,+1:00
9,Germany,Marburg,Hesse,DB0MDX B,DB0MDX G,439.512500,DUP-,7.600000,DV,OFF,88.5Hz,YES,Approximate,50.820000,8.820000,+1:00
9,Germany,Neustadt,Hesse,DB0ADN B,DB0ADN G,430.375000,DUP-,0.000000,DV,OFF,88.5Hz,YES,Approximate,50.860000,9.110000,+1:00
9,Germany,Pobenhausen,Hesse,DB0POB B,DB0POB G,439.500000,DUP-,7.600000,DV,OFF,88.5Hz,YES,Approximate,48.660000,11.390000,+1:00
9,Germany,Pobenhausen,Hesse,DB0POB C,DB0POB G,145.587500,DUP-,0.600000,DV,OFF,88.5Hz,YES,Approximate,48.660000,11.390000,+1:00
9,Germany,Rimberg / Bad He,Hesse,DB0HRR C,DB0HRR G,145.700000,DUP-,0.600000,DV,OFF,88.5Hz,YES,Approximate,50.800000,9.470000,+1:00
9,Germany,Taunus,Hesse,DB0MOT B,DB0MOT G,439.437500,DUP-,7.600000,DV,OFF,88.5Hz,YES,Approximate,50.230000,8.450000,+1:00
9,Germany,Wasserkuppe/Fuld,Hesse,DB0WK  B,DB0WK  G,439.462500,DUP-,7.600000,DV,OFF,88.5Hz,YES,Approximate,50.480000,9.950000,+1:00
9,Germany,Buxtehude,Lower Sa,DB0BUX A,DB0BUX G,145.850000,DUP-,0.000000,DV,OFF,88.5Hz,YES,Approximate,53.470000,9.690000,+1:00
9,Germany,Buxtehude,Lower Sa,DB0BUX B,DB0BUX G,438.587500,DUP+,7.600000,DV,OFF,88.5Hz,YES,Approximate,53.470000,9.690000,+1:00
9,Germany,Buxtehude,Lower Sa,DB0BUX C,DB0BUX G,145.587500,DUP-,0.600000,DV,OFF,88.5Hz,YES,Approximate,53.470000,9.690000,+1:00
9,Germany,Cuxhaven,Lower Sa,DB0CHV B,DB0CHV G,439.550000,DUP-,7.600000,DV,OFF,88.5Hz,YES,Approximate,53.860000,8.680000,+1:00
9,Germany,Gottingen,Lower Sa,DB0SN  B,DB0SN  G,439.500000,DUP-,7.600000,DV,OFF,88.5Hz,YES,Approximate,51.540000,9.940000,+1:00
9,Germany,Hannover,Lower Sa,DB0SHA B,DB0SHA G,439.550000,DUP-,7.600000,DV,OFF,88.5Hz,YES,Approximate,52.380000,9.750000,+1:00
9,Germany,Herzberg am Harz,Lower Sa,DB0OHA B,DB0OHA G,439.562500,DUP-,7.600000,DV,OFF,88.5Hz,YES,Approximate,51.670000,10.350000,+1:00
9,Germany,Leer - Ostfriesl,Lower Sa,DB0WO  B,DB0WO  G,439.450000,DUP-,7.600000,DV,OFF,88.5Hz,YES,Approximate,53.240000,7.470000,+1:00
9,Germany,Oldenburg,Lower Sa,DB0OL  A,DB0OL  G,1242.275000,DUP+,28.000000,DV,OFF,88.5Hz,YES,Approximate,53.150000,8.250000,+1:00
9,Germany,Oldenburg,Lower Sa,DB0OL  B,DB0OL  G,438.375000,DUP-,7.600000,DV,OFF,88.5Hz,YES,Approximate,53.150000,8.250000,+1:00
9,Germany,Oldenburg,Lower Sa,DB0OL  C,DB0OL  G,439.937500,DUP+,9.400000,DV,OFF,88.5Hz,YES,Approximate,53.150000,8.250000,+1:00
9,Germany,Wilhelmshaven,Lower Sa,DB0WTV B,DB0WTV G,439.493750,DUP-,7.600000,DV,OFF,88.5Hz,YES,Approximate,53.520000,8.150000,+1:00
9,Germany,Greifswald,Mecklenb,DB0HGW B,DB0HGW G,439.475000,DUP-,7.600000,DV,OFF,88.5Hz,YES,Approximate,54.100000,13.380000,+1:00
9,Germany,Timmendorf,Mecklenb,DB0MAR B,DB0MAR G,439.850000,DUP-,9.400000,DV,OFF,88.5Hz,YES,Approximate,54.010000,10.780000,+1:00
9,Germany,Bad Berleburg,North Rh,DB0BLB C,DB0BLB G,145.575000,DUP-,0.000000,DV,OFF,88.5Hz,YES,Approximate,51.050000,8.410000,+1:00
9,Germany,Bochum,North Rh,DB0BS  B,DB0BS  G,439.450000,DUP-,7.600000,DV,OFF,88.5Hz,YES,Approximate,51.510000,7.250000,+1:00
9,Germany,Bonn / Koln am R,North Rh,DB0DBN B,DB0DBN G,439.531250,DUP-,7.600000,DV,OFF,88.5Hz,YES,Approximate,50.690000,7.250000,+1:00
9,Germany,Cologne,North Rh,DB0KOE C,DB0KOE G,144.937500,DUP-,0.000000,DV,OFF,88.5Hz,YES,Approximate,50.940000,6.960000,+1:00
9,Germany,Dormagen,North Rh,DB0RKD B,DB0RKD G,438.425000,DUP-,7.600000,DV,OFF,88.5Hz,YES,Approximate,51.110000,6.830000,+1:00
9,Germany,Erkelenz,North Rh,DB0ERK B,DB0ERK G,439.456250,DUP-,7.600000,DV,OFF,88.5Hz,YES,Approximate,51.130000,6.210000,+1:00
9,Germany,Essen,North Rh,DB0DDE B,DB0DDE G,439.537500,DUP-,7.600000,DV,OFF,88.5Hz,YES,Approximate,51.450000,7.010000,+1:00
9,Germany,Essen/Ruhrgebiet,North Rh,DB0WE  B,DB0WE  G,439.512500,DUP-,7.600000,DV,OFF,88.5Hz,YES,Approximate,51.410000,6.990000,+1:00
9,Germany,Grevenbroich,North Rh,DB0UHC B,DB0UHC G,439.875000,DUP-,9.400000,DV,OFF,88.5Hz,YES,Approximate,51.060000,6.610000,+1:00
9,Germany,Gummersbach,North Rh,DB0GM  B,DB0GM  G,438.450000,DUP+,7.600000,DV,OFF,88.5Hz,YES,Approximate,51.000000,7.540000,+1:00
9,Germany,Hagen,North Rh,DB0HAA B,DB0HAA G,439.587500,DUP-,7.600000,DV,OFF,88.5Hz,YES,Approximate,51.370000,7.510000,+1:00
9,Germany,Herford,North Rh,DB0HFD B,DB0HFD G,438.525000,DUP-,7.600000,DV,OFF,88.5Hz,YES,Approximate,52.150000,8.730000,+1:00
9,Germany,Hermsdorf,North Rh,DB0HDF A,DB0HDF G,1298.450000,DUP-,28.000000,DV,OFF,88.5Hz,YES,Approximate,50.910000,11.860000,+1:00
9,Germany,Hermsdorf,North Rh,DB0HDF B,DB0HDF G,439.850000,DUP-,9.400000,DV,OFF,88.5Hz,YES,Approximate,50.910000,11.860000,+1:00
9,Germany,Hoher Knuell,North Rh,DB0KH  B,DB0KH  G,439.562500,DUP-,7.600000,DV,OFF,88.5Hz,YES,Approximate,50.920000,9.420000,+1:00
9,Germany,Lengerich,North Rh,DB0DY  B,DB0DY  G,439.812500,DUP-,9.400000,DV,OFF,88.5Hz,YES,Approximate,52.170000,7.910000,+1:00
9,Germany,Marl,North Rh,DB0NG  A,DB0NG  G,1298.575000,DUP-,28.000000,DV,OFF,88.5Hz,YES,Approximate,51.690000,7.110000,+1:00
9,Germany,Marl,North Rh,DB0NG  B,DB0NG  G,439.575000,DUP-,7.600000,DV,OFF,88.5Hz,YES,Approximate,51.690000,7.110000,+1:00
9,Germany,Meerbusch,North Rh,DB0OTV B,DB0OTV G,439.500000,DUP+,7.600000,DV,OFF,88.5Hz,YES,Approximate,51.270000,6.630000,+1:00
9,Germany,Meschede,North Rh,DB0HSK B,DB0HSK G,439.506250,DUP-,7.600000,DV,OFF,88.5Hz,YES,Approximate,51.390000,8.290000,+1:00
9,Germany,Meschede,North Rh,DB0MES B,DB0MES G,439.575000,DUP-,7.600000,DV,OFF,88.5Hz,YES,Approximate,51.370000,8.180000,+1:00
9,Germany,Mulheim,North Rh,DF0MHR B,DF0MHR G,439.462500,DUP-,7.600000,DV,OFF,88.5Hz,YES,Approximate,51.440000,6.840000,+1:00
9,Germany,Paderborn,North Rh,DB0PBS B,DB0PBS G,439.550000,DUP-,7.600000,DV,OFF,88.5Hz,YES,Approximate,51.710000,8.770000,+1:00
9,Germany,Rheine,North Rh,DB0RTV B,DB0RTV G,438.512500,DUP-,7.600000,DV,OFF,88.5Hz,YES,Approximate,52.170000,7.250000,+1:00
9,Germany,Gaensehals,Rhinelan,DB0MYK B,DB0MYK G,439.562500,DUP-,7.600000,DV,OFF,88.5Hz,YES,Approximate,50.400000,7.210000,+1:00
9,Germany,Hisel,Rhinelan,DB0DRB B,DB0DRB G,438.425000,DUP-,7.600000,DV,OFF,88.5Hz,YES,Approximate,49.970000,6.370000,+1:00
9,Germany,Trier,Rhinelan,DB0DTR C,DB0DTR G,145.581250,DUP-,0.600000,DV,OFF,88.5Hz,YES,Approximate,49.780000,6.580000,+1:00
9,Germany,Goettelborn,Saarland,DB0IKS B,DB0IKS G,439.462500,DUP-,7.600000,DV,OFF,88.5Hz,YES,Approximate,49.350000,7.020000,+1:00
9,Germany,Auersberg,Saxony,DB0ERZ B,DB0ERZ G,439.525000,DUP-,7.600000,DV,OFF,88.5Hz,YES,Approximate,50.460000,12.650000,+1:00
9,Germany,Hohenstein-Ernst,Saxony,DB0SBX B,DB0SBX G,439.500000,DUP-,7.600000,DV,OFF,88.5Hz,YES,Approximate,50.810000,12.720000,+1:00
9,Germany,Hohenstein-Ernst,Saxony,DB0SBX C,DB0SBX G,145.687500,DUP-,0.600000,DV,OFF,88.5Hz,YES,Approximate,50.810000,12.720000,+1:00
9,Germany,Mittweida,Saxony,DM0MW  B,DM0MW  G,439.550000,DUP-,7.600000,DV,OFF,88.5Hz,YES,Approximate,50.990000,12.980000,+1:00
9,Germany,Schneeberg,Saxony,DF0WUN A,DF0WUN G,1298.450000,DUP-,28.000000,DV,OFF,88.5Hz,YES,Approximate,50.060000,11.860000,+1:00
9,Germany,Schneeberg,Saxony,DF0WUN B,DF0WUN G,439.475000,DUP-,7.600000,DV,OFF,88.5Hz,YES,Approximate,50.060000,11.860000,+1:00
9,Germany,Tangermunde,Saxony-A,DB0AMK B,DB0AMK G,439.450000,DUP-,7.600000,DV,OFF,88.5Hz,YES,Approximate,52.550000,11.970000,+1:00
9,Germany,Basedow,Schleswi,DO0TPB A,DO0TPB G,1298.550000,DUP-,28.000000,DV,OFF,88.5Hz,YES,Approximate,53.420000,10.590000,+1:00
9,Germany,Basedow,Schleswi,DO0TPB B,DO0TPB G,439.387500,DUP-,7.600000,DV,OFF,88.5Hz,YES,Approximate,53.420000,10.590000,+1:00
9,Germany,Basedow,Schleswi,DO0TPB C,DO0TPB G,145.762500,DUP-,0.600000,DV,OFF,88.5Hz,YES,Approximate,53.420000,10.590000,+1:00
9,Germany,Ellerhoop,Schleswi,DB0EAT A,DB0EAT G,1298.575000,DUP-,28.000000,DV,OFF,88.5Hz,YES,Approximate,53.730000,9.770000,+1:00
9,Germany,Ellerhoop,Schleswi,DB0EAT B,DB0EAT G,439.000000,DUP+,7.600000,DV,OFF,88.5Hz,YES,Approximate,53.730000,9.770000,+1:00
9,Germany,Ellerhoop,Schleswi,DB0EAT C,DB0EAT G,145.575000,DUP-,0.000000,DV,OFF,88.5Hz,YES,Approximate,53.730000,9.770000,+1:00
9,Germany,Geesthacht,Schleswi,DB0HEW B,DB0HEW G,438.550000,DUP-,7.600000,DV,OFF,88.5Hz,YES,Approximate,53.420000,10.420000,+1:00
9,Germany,Hamburg - Wandsb,Schleswi,DM0HHW B,DM0HHW G,439.462500,DUP-,7.600000,DV,OFF,88.5Hz,YES,Approximate,53.580000,10.090000,+1:00
9,Germany,Handewitt,Schleswi,DB0IR  B,DB0IR  G,438.300000,DUP-,7.600000,DV,OFF,88.5Hz,YES,Approximate,54.740000,9.350000,+1:00
9,Germany,Handewitt,Schleswi,DB0IR  C,DB0IR  G,144.825000,DUP-,0.000000,DV,OFF,88.5Hz,YES,Approximate,54.740000,9.350000,+1:00
9,Germany,Heligoland,Schleswi,DB0HEL B,DB0HEL G,439.075000,DUP-,7.600000,DV,OFF,88.5Hz,YES,Approximate,54.190000,7.890000,+1:00
9,Germany,Husum,Schleswi,DB0HUS A,DB0HUS G,1242.450000,DUP+,28.000000,DV,OFF,88.5Hz,YES,Approximate,54.490000,9.050000,+1:00
9,Germany,Husum,Schleswi,DB0HUS B,DB0HUS G,438.425000,DUP-,7.600000,DV,OFF,88.5Hz,YES,Approximate,54.490000,9.050000,+1:00
9,Germany,Husum,Schleswi,DB0HUS C,DB0HUS G,145.700000,DUP-,0.600000,DV,OFF,88.5Hz,YES,Approximate,54.490000,9.050000,+1:00
9,Germany,Itzehoe,Schleswi,DM0IZH B,DM0IZH G,439.875000,DUP-,7.600000,DV,OFF,88.5Hz,YES,Approximate,53.880000,9.500000,+1:00
9,Germany,Itzehoe,Schleswi,DM0IZH C,DM0IZH G,145.687500,DUP-,0.600000,DV,OFF,88.5Hz,YES,Approximate,53.880000,9.500000,+1:00
9,Germany,Laboe,Schleswi,DB0DMB B,DB0DMB G,438.325000,DUP-,7.600000,DV,OFF,88.5Hz,YES,Approximate,54.420000,10.240000,+1:00
9,Germany,Laboe,Schleswi,DB0DMB C,DB0DMB G,145.587500,DUP-,0.600000,DV,OFF,88.5Hz,YES,Approximate,54.420000,10.240000,+1:00
9,Germany,Luebeck,Schleswi,DB0DWL B,DB0DWL G,439.925000,DUP-,9.400000,DV,OFF,88.5Hz,YES,Approximate,53.860000,10.670000,+2:00
9,Germany,Schalkholz,Schleswi,DM0HEI B,DM0HEI G,438.562500,DUP-,7.600000,DV,OFF,88.5Hz,YES,Approximate,54.250000,9.270000,+1:00
9,Germany,Schalkholz,Schleswi,DM0HEI C,DM0HEI G,144.837500,DUP-,0.000000,DV,OFF,88.5Hz,YES,Approximate,54.250000,9.270000,+1:00
9,Germany,Schleswig,Schleswi,DM0SL  B,DM0SL  G,438.350000,DUP+,7.600000,DV,OFF,88.5Hz,YES,Approximate,54.530000,9.530000,+1:00
9,Germany,Suhl Erleshuegel,Thuringi,DB0FTS A,DB0FTS G,1298.425000,DUP-,28.000000,DV,OFF,88.5Hz,YES,Approximate,50.620000,10.750000,+1:00
9,Germany,Suhl Erleshuegel,Thuringi,DB0FTS B,DB0FTS G,438.537500,DUP-,7.600000,DV,OFF,88.5Hz,YES,Approximate,50.620000,10.750000,+1:00
9,Germany,Suhl Erleshuegel,Thuringi,DB0FTS C,DB0FTS G,144.625000,DUP-,0.000000,DV,OFF,88.5Hz,YES,Approximate,50.620000,10.750000,+1:00
10,Caribbean,Willemstad,Curacao,PJ2A   B,PJ2A   G,438.825000,DUP+,7.600000,DV,OFF,88.5Hz,YES,Approximate,12.100000,-68.900000,-4:00
10,Caribbean,Isabella,PR,WP4QY  G,WP4QY  G,442.500000,DUP+,5.000000,DV,OFF,88.5Hz,YES,Approximate,18.457833,-67.050667,-4:00
10,Caribbean,St. James,Trinidad,9Y4TT  C,9Y4TT  G,147.850000,DUP-,0.600000,DV,OFF,88.5Hz,YES,Approximate,10.680000,-61.530000,-4:00
11,Italy,L'Aquila,Abruzzo,IR6L   C,IR6L   G,145.650000,DUP+,0.600000,DV,OFF,88.5Hz,YES,Approximate,42.360000,13.400000,+1:00
11,Italy,Monte Maiella,Abruzzo,IR6UCC B,IR6UCC G,430.012500,DUP+,5.000000,DV,OFF,88.5Hz,YES,Approximate,42.160000,14.130000,+1:00
11,Italy,Monte Maiella,Abruzzo,IR6UCC C,IR6UCC G,145.687500,DUP-,0.600000,DV,OFF,88.5Hz,YES,Approximate,42.160000,14.130000,+1:00
11,Italy,Monte Pallano,Abruzzo,IR6UCD B,IR6UCD G,430.137500,DUP+,1.600000,DV,OFF,88.5Hz,YES,Approximate,42.040000,14.390000,+1:00
11,Italy,Ortona,Abruzzo,IR6UCX C,IR6UCX G,144.962500,DUP-,0.000000,DV,OFF,88.5Hz,YES,Approximate,42.350000,14.410000,+1:00
11,Italy,Pescara,Abruzzo,IR6UCY B,IR6UCY G,431.437500,DUP+,1.600000,DV,OFF,88.5Hz,YES,Approximate,42.440000,14.240000,+1:00
11,Italy,Pineto,Abruzzo,IR6UCU B,IR6UCU G,430.337500,DUP+,5.000000,DV,OFF,88.5Hz,YES,Approximate,42.590000,14.060000,+1:00
11,Italy,Sulmona,Abruzzo,IR6UDO B,IR6UDO G,430.137500,DUP+,1.600000,DV,OFF,88.5Hz,YES,Approximate,42.050000,13.930000,+1:00
11,Italy,Vasto,Abruzzo,IR6UDB A,IR6UDB G,1297.000000,DUP-,30.000000,DV,OFF,88.5Hz,YES,Approximate,42.130000,14.710000,+1:00
11,Italy,Vasto,Abruzzo,IR6UDB B,IR6UDB G,430.350000,DUP+,5.000000,DV,OFF,88.5Hz,YES,Approximate,42.130000,14.710000,+1:00
11,Italy,Vasto,Abruzzo,IR6UDB C,IR6UDB G,144.950000,DUP-,0.000000,DV,OFF,88.5Hz,YES,Approximate,42.130000,14.710000,+1:00
11,Italy,Abriola,Basilica,IR8BQ  C,IR8BQ  G,145.687500,DUP-,0.600000,DV,OFF,88.5Hz,YES,Approximate,40.650000,15.800000,+1:00
11,Italy,Cosenza,Calabria,IR8AF  C,IR8AF  G,145.650000,DUP-,0.600000,DV,OFF,88.5Hz,YES,Approximate,39.300000,16.260000,+1:00
11,Italy,Cosenza,Calabria,IR8BP  C,IR8BP  G,145.675000,DUP-,0.600000,DV,OFF,88.5Hz,YES,Approximate,39.300000,16.250000,+1:00
11,Italy,Cosenza,Calabria,IR8UBW B,IR8UBW G,430.175000,DUP+,1.600000,DV,OFF,88.5Hz,YES,Approximate,39.300000,16.260000,+1:00
11,Italy,Villa San Giovan,Calabria,IR8UCN C,IR8UCN G,145.712500,DUP-,0.600000,DV,OFF,88.5Hz,YES,Approximate,38.230000,15.650000,+1:00
11,Italy,Avellino,Campania,IR8UAF B,IR8UAF G,432.250000,DUP+,1.600000,DV,OFF,88.5Hz,YES,Approximate,41.050000,14.490000,+1:00
11,Italy,Napoli,Campania,IR8AW  B,IR8AW  G,430.425000,DUP+,5.000000,DV,OFF,88.5Hz,YES,Approximate,40.880000,14.440000,+1:00
11,Italy,Pompei /Napoli,Campania,IR8CA  B,IR8CA  G,430.475000,DUP+,5.000000,DV,OFF,88.5Hz,YES,Approximate,40.750000,14.510000,+1:00
11,Italy,Pompei /Napoli,Campania,IR8CA  C,IR8CA  G,145.662500,DUP-,0.600000,DV,OFF,88.5Hz,YES,Approximate,40.750000,14.510000,+1:00
11,Italy,Trevico  (AV),Campania,IR8UAE B,IR8UAE G,430.225000,DUP+,1.600000,DV,OFF,88.5Hz,YES,Approximate,41.000000,14.900000,+1:00
11,Italy,Bologna,Emila-Ro,IR4UAJ B,IR4UAJ G,430.237500,DUP+,1.600000,DV,OFF,88.5Hz,YES,Approximate,44.570000,11.380000,+1:00
11,Italy,Monte Cimone,Emila-Ro,IR4MO  C,IR4MO  G,145.562500,DUP-,0.600000,DV,OFF,88.5Hz,YES,Approximate,44.200000,10.710000,+1:00
11,Italy,Ozzano,Emila-Ro,IU4OOP B,IU4OOP G,432.775000,DUP+,0.000000,DV,OFF,88.5Hz,YES,Exact,44.445000,11.475833,+1:00
11,Italy,Fontanafredda,Friuli-V,IR3UBK B,IR3UBK G,430.550000,DUP-,0.000000,DV,OFF,88.5Hz,YES,Approximate,45.980000,12.580000,+1:00
11,Italy,m.te Bernadia Ud,Friuli-V,IR3EF  C,IR3EF  G,145.587500,DUP-,0.600000,DV,OFF,88.5Hz,YES,Approximate,46.240000,13.250000,+1:00
11,Italy,Monte Sabotino G,Friuli-V,IR3UJ  B,IR3UJ  G,430.075000,DUP+,1.600000,DV,OFF,88.5Hz,YES,Approximate,45.990000,13.640000,+7:00
11,Italy,Pordenone,Friuli-V,IR3UIB B,IR3UIB G,431.525000,DUP+,1.600000,DV,OFF,88.5Hz,YES,Approximate,46.010000,12.440000,+1:00
11,Italy,Trieste,Friuli-V,IR3UIC B,IR3UIC G,431.550000,DUP+,1.600000,DV,OFF,88.5Hz,YES,Approximate,45.660000,13.770000,+1:00
11,Italy,Udine,Friuli-V,IR3UBZ B,IR3UBZ G,433.025000,DUP-,1.600000,DV,OFF,88.5Hz,YES,Approximate,46.060000,13.250000,+1:00
11,Italy,Latina,Lazio,IR0CJ  A,IR0CJ  G,1298.500000,DUP-,28.000000,DV,OFF,88.5Hz,YES,Approximate,41.500000,13.080000,+1:00
11,Italy,Latina,Lazio,IR0CJ  B,IR0CJ  G,431.412500,DUP+,1.600000,DV,OFF,88.5Hz,YES,Approximate,41.500000,13.080000,+1:00
11,Italy,Latina,Lazio,IR0CJ  C,IR0CJ  G,145.737500,DUP-,0.600000,DV,OFF,88.5Hz,YES,Approximate,41.500000,13.080000,+1:00
11,Italy,Roma,Lazio,IR0UHW B,IR0UHW G,433.700000,DUP-,0.000000,DV,OFF,88.5Hz,YES,Approximate,42.020000,12.350000,+1:00
11,Italy,Rome,Lazio,IR0MA  A,IR0MA  G,1297.450000,DUP-,55.000000,DV,OFF,88.5Hz,YES,Approximate,41.820000,12.720000,+1:00
11,Italy,Rome,Lazio,IR0MA  B,IR0MA  G,430.006250,DUP+,5.000000,DV,OFF,88.5Hz,YES,Approximate,41.820000,12.720000,+1:00
11,Italy,Rome,Lazio,IR0MA  C,IR0MA  G,145.993750,DUP-,1.980000,DV,OFF,88.5Hz,YES,Approximate,41.820000,12.720000,+1:00
11,Italy,Viterbo,Lazio,IR0CD  C,IR0CD  G,145.975000,DUP-,1.100000,DV,OFF,88.5Hz,YES,Approximate,42.420000,12.120000,+1:00
11,Italy,Borghetto Santo,Liguria,IR1UGO B,IR1UGO G,430.525000,DUP+,5.000000,DV,OFF,88.5Hz,YES,Approximate,44.110000,8.240000,+1:00
11,Italy,Borghetto Santo,Liguria,IR1UGO C,IR1UGO G,144.937500,DUP-,0.000000,DV,OFF,88.5Hz,YES,Approximate,44.110000,8.240000,+1:00
11,Italy,Castiglione Chia,Liguria,IR1DC  C,IR1DC  G,144.925000,DUP-,0.000000,DV,OFF,88.5Hz,YES,Approximate,44.280000,9.530000,+1:00
11,Italy,Imperia,Liguria,IR1UGM B,IR1UGM G,430.262500,DUP-,1.600000,DV,OFF,88.5Hz,YES,Approximate,43.880000,8.010000,+1:00
11,Italy,Levanto,Liguria,IR1CT  C,IR1CT  G,144.925000,DUP-,0.000000,DV,OFF,88.5Hz,YES,Approximate,44.180000,9.630000,+1:00
11,Italy,Rapallo,Liguria,IR1UIM B,IR1UIM G,430.337500,DUP+,5.000000,DV,OFF,88.5Hz,YES,Approximate,44.350000,9.260000,+1:00
11,Italy,Bernate Ticino,Lombardi,IR2UEZ A,IR2UEZ G,1297.275000,DUP-,6.000000,DV,OFF,88.5Hz,YES,Approximate,45.490000,8.820000,+1:00
11,Italy,Bernate Ticino,Lombardi,IR2UEZ B,IR2UEZ G,431.612500,DUP+,1.600000,DV,OFF,88.5Hz,YES,Approximate,45.490000,8.820000,+1:00
11,Italy,Bollate,Lombardi,IR2UFV B,IR2UFV G,433.625000,DUP-,0.000000,DV,OFF,88.5Hz,YES,Approximate,45.550000,9.120000,+1:00
11,Italy,Brescia,Lombardi,IR2UBG B,IR2UBG G,431.562500,DUP+,1.600000,DV,OFF,88.5Hz,YES,Approximate,45.550000,10.290000,+1:00
11,Italy,Camposauro,Lombardi,IR8BA  C,IR8BA  G,145.787500,DUP-,0.600000,DV,OFF,88.5Hz,YES,Approximate,41.100000,14.610000,+1:00
11,Italy,Gambolo,Lombardi,IR2UFH B,IR2UFH G,430.137500,DUP+,1.600000,DV,OFF,88.5Hz,YES,Approximate,45.270000,8.860000,+1:00
11,Italy,Milan,Lombardi,IR2UDY A,IR2UDY G,1297.225000,DUP-,0.600000,DV,OFF,88.5Hz,YES,Approximate,45.520000,9.280000,+1:00
11,Italy,Milan,Lombardi,IR2UDY B,IR2UDY G,431.437500,DUP+,1.600000,DV,OFF,88.5Hz,YES,Approximate,45.520000,9.280000,+1:00
11,Italy,S.Giulia,Lombardi,IR1UAW B,IR1UAW G,430.912500,DUP+,5.000000,DV,OFF,88.5Hz,YES,Approximate,44.310000,9.380000,+1:00
11,Italy,S.Giulia,Lombardi,IR1UAW C,IR1UAW G,144.925000,DUP-,0.000000,DV,OFF,88.5Hz,YES,Approximate,44.310000,9.380000,+1:00
11,Italy,Albugnano,Piemonte,IR1UCB B,IR1UCB G,430.100000,DUP+,1.600000,DV,OFF,88.5Hz,YES,Approximate,45.080000,7.980000,+1:00
11,Italy,Alice Bel Colle,Piemonte,IR1UIV B,IR1UIV G,430.875000,DUP+,5.000000,DV,OFF,88.5Hz,YES,Approximate,44.730000,8.460000,+1:00
